$GPGGA,110118.178,5231.211,N,01322.778,E,1,12,1.0,0.0,M,0.0,M,,*65
$GPGSA,A,3,01,02,03,04,05,06,07,08,09,10,11,12,1.0,1.0,1.0*30
$GPRMC,110118.178,A,5231.211,N,01322.778,E,038.9,077.4,190426,000.0,W*7F
$GPGGA,110119.178,5231.214,N,01322.795,E,1,12,1.0,0.0,M,0.0,M,,*62
$GPGSA,A,3,01,02,03,04,05,06,07,08,09,10,11,12,1.0,1.0,1.0*30
$GPRMC,110119.178,A,5231.214,N,01322.795,E,038.9,077.4,190426,000.0,W*78
$GPGGA,110120.178,5231.216,N,01322.812,E,1,12,1.0,0.0,M,0.0,M,,*6A
$GPGSA,A,3,01,02,03,04,05,06,07,08,09,10,11,12,1.0,1.0,1.0*30
$GPRMC,110120.178,A,5231.216,N,01322.812,E,038.9,077.4,190426,000.0,W*70
$GPGGA,110121.178,5231.218,N,01322.830,E,1,12,1.0,0.0,M,0.0,M,,*65
$GPGSA,A,3,01,02,03,04,05,06,07,08,09,10,11,12,1.0,1.0,1.0*30
$GPRMC,110121.178,A,5231.218,N,01322.830,E,038.9,077.4,190426,000.0,W*7F
$GPGGA,110122.178,5231.221,N,01322.847,E,1,12,1.0,0.0,M,0.0,M,,*6C
$GPGSA,A,3,01,02,03,04,05,06,07,08,09,10,11,12,1.0,1.0,1.0*30
$GPRMC,110122.178,A,5231.221,N,01322.847,E,038.9,077.4,190426,000.0,W*76
$GPGGA,110123.178,5231.223,N,01322.864,E,1,12,1.0,0.0,M,0.0,M,,*6E
$GPGSA,A,3,01,02,03,04,05,06,07,08,09,10,11,12,1.0,1.0,1.0*30
$GPRMC,110123.178,A,5231.223,N,01322.864,E,038.9,077.4,190426,000.0,W*74
$GPGGA,110124.178,5231.226,N,01322.882,E,1,12,1.0,0.0,M,0.0,M,,*64
$GPGSA,A,3,01,02,03,04,05,06,07,08,09,10,11,12,1.0,1.0,1.0*30
$GPRMC,110124.178,A,5231.226,N,01322.882,E,038.9,077.4,190426,000.0,W*7E
$GPGGA,110125.178,5231.228,N,01322.899,E,1,12,1.0,0.0,M,0.0,M,,*61
$GPGSA,A,3,01,02,03,04,05,06,07,08,09,10,11,12,1.0,1.0,1.0*30
$GPRMC,110125.178,A,5231.228,N,01322.899,E,038.9,077.4,190426,000.0,W*7B
$GPGGA,110126.178,5231.230,N,01322.916,E,1,12,1.0,0.0,M,0.0,M,,*6D
$GPGSA,A,3,01,02,03,04,05,06,07,08,09,10,11,12,1.0,1.0,1.0*30
$GPRMC,110126.178,A,5231.230,N,01322.916,E,038.9,077.4,190426,000.0,W*77
$GPGGA,110127.178,5231.233,N,01322.934,E,1,12,1.0,0.0,M,0.0,M,,*6F
$GPGSA,A,3,01,02,03,04,05,06,07,08,09,10,11,12,1.0,1.0,1.0*30
$GPRMC,110127.178,A,5231.233,N,01322.934,E,038.9,077.4,190426,000.0,W*75
$GPGGA,110128.178,5231.235,N,01322.951,E,1,12,1.0,0.0,M,0.0,M,,*65
$GPGSA,A,3,01,02,03,04,05,06,07,08,09,10,11,12,1.0,1.0,1.0*30
$GPRMC,110128.178,A,5231.235,N,01322.951,E,038.9,077.4,190426,000.0,W*7F
$GPGGA,110129.178,5231.237,N,01322.968,E,1,12,1.0,0.0,M,0.0,M,,*6C
$GPGSA,A,3,01,02,03,04,05,06,07,08,09,10,11,12,1.0,1.0,1.0*30
$GPRMC,110129.178,A,5231.237,N,01322.968,E,038.9,077.4,190426,000.0,W*76
$GPGGA,110130.178,5231.240,N,01322.986,E,1,12,1.0,0.0,M,0.0,M,,*64
$GPGSA,A,3,01,02,03,04,05,06,07,08,09,10,11,12,1.0,1.0,1.0*30
$GPRMC,110130.178,A,5231.240,N,01322.986,E,038.9,077.4,190426,000.0,W*7E
$GPGGA,110131.178,5231.242,N,01323.003,E,1,12,1.0,0.0,M,0.0,M,,*62
$GPGSA,A,3,01,02,03,04,05,06,07,08,09,10,11,12,1.0,1.0,1.0*30
$GPRMC,110131.178,A,5231.242,N,01323.003,E,038.9,077.4,190426,000.0,W*78
$GPGGA,110132.178,5231.244,N,01323.020,E,1,12,1.0,0.0,M,0.0,M,,*66
$GPGSA,A,3,01,02,03,04,05,06,07,08,09,10,11,12,1.0,1.0,1.0*30
$GPRMC,110132.178,A,5231.244,N,01323.020,E,038.9,077.4,190426,000.0,W*7C
$GPGGA,110133.178,5231.247,N,01323.037,E,1,12,1.0,0.0,M,0.0,M,,*62
$GPGSA,A,3,01,02,03,04,05,06,07,08,09,10,11,12,1.0,1.0,1.0*30
$GPRMC,110133.178,A,5231.247,N,01323.037,E,038.9,077.4,190426,000.0,W*78
$GPGGA,110134.178,5231.249,N,01323.055,E,1,12,1.0,0.0,M,0.0,M,,*6F
$GPGSA,A,3,01,02,03,04,05,06,07,08,09,10,11,12,1.0,1.0,1.0*30
$GPRMC,110134.178,A,5231.249,N,01323.055,E,038.9,077.4,190426,000.0,W*75
$GPGGA,110135.178,5231.251,N,01323.072,E,1,12,1.0,0.0,M,0.0,M,,*62
$GPGSA,A,3,01,02,03,04,05,06,07,08,09,10,11,12,1.0,1.0,1.0*30
$GPRMC,110135.178,A,5231.251,N,01323.072,E,038.9,077.4,190426,000.0,W*78
$GPGGA,110136.178,5231.254,N,01323.089,E,1,12,1.0,0.0,M,0.0,M,,*60
$GPGSA,A,3,01,02,03,04,05,06,07,08,09,10,11,12,1.0,1.0,1.0*30
$GPRMC,110136.178,A,5231.254,N,01323.089,E,038.9,077.4,190426,000.0,W*7A
$GPGGA,110137.178,5231.256,N,01323.107,E,1,12,1.0,0.0,M,0.0,M,,*64
$GPGSA,A,3,01,02,03,04,05,06,07,08,09,10,11,12,1.0,1.0,1.0*30
$GPRMC,110137.178,A,5231.256,N,01323.107,E,038.9,077.4,190426,000.0,W*7E
$GPGGA,110138.178,5231.259,N,01323.124,E,1,12,1.0,0.0,M,0.0,M,,*65
$GPGSA,A,3,01,02,03,04,05,06,07,08,09,10,11,12,1.0,1.0,1.0*30
$GPRMC,110138.178,A,5231.259,N,01323.124,E,038.9,077.4,190426,000.0,W*7F
$GPGGA,110139.178,5231.261,N,01323.141,E,1,12,1.0,0.0,M,0.0,M,,*6C
$GPGSA,A,3,01,02,03,04,05,06,07,08,09,10,11,12,1.0,1.0,1.0*30
$GPRMC,110139.178,A,5231.261,N,01323.141,E,038.9,077.4,190426,000.0,W*76
$GPGGA,110140.178,5231.263,N,01323.159,E,1,12,1.0,0.0,M,0.0,M,,*69
$GPGSA,A,3,01,02,03,04,05,06,07,08,09,10,11,12,1.0,1.0,1.0*30
$GPRMC,110140.178,A,5231.263,N,01323.159,E,038.9,077.4,190426,000.0,W*73
$GPGGA,110141.178,5231.266,N,01323.176,E,1,12,1.0,0.0,M,0.0,M,,*60
$GPGSA,A,3,01,02,03,04,05,06,07,08,09,10,11,12,1.0,1.0,1.0*30
$GPRMC,110141.178,A,5231.266,N,01323.176,E,038.9,077.4,190426,000.0,W*7A
$GPGGA,110142.178,5231.268,N,01323.193,E,1,12,1.0,0.0,M,0.0,M,,*66
$GPGSA,A,3,01,02,03,04,05,06,07,08,09,10,11,12,1.0,1.0,1.0*30
$GPRMC,110142.178,A,5231.268,N,01323.193,E,038.9,077.4,190426,000.0,W*7C
$GPGGA,110143.178,5231.270,N,01323.211,E,1,12,1.0,0.0,M,0.0,M,,*67
$GPGSA,A,3,01,02,03,04,05,06,07,08,09,10,11,12,1.0,1.0,1.0*30
$GPRMC,110143.178,A,5231.270,N,01323.211,E,038.9,077.4,190426,000.0,W*7D
$GPGGA,110144.178,5231.273,N,01323.228,E,1,12,1.0,0.0,M,0.0,M,,*69
$GPGSA,A,3,01,02,03,04,05,06,07,08,09,10,11,12,1.0,1.0,1.0*30
$GPRMC,110144.178,A,5231.273,N,01323.228,E,038.9,077.4,190426,000.0,W*73
$GPGGA,110145.178,5231.275,N,01323.245,E,1,12,1.0,0.0,M,0.0,M,,*65
$GPGSA,A,3,01,02,03,04,05,06,07,08,09,10,11,12,1.0,1.0,1.0*30
$GPRMC,110145.178,A,5231.275,N,01323.245,E,038.9,077.4,190426,000.0,W*7F
$GPGGA,110146.178,5231.277,N,01323.263,E,1,12,1.0,0.0,M,0.0,M,,*60
$GPGSA,A,3,01,02,03,04,05,06,07,08,09,10,11,12,1.0,1.0,1.0*30
$GPRMC,110146.178,A,5231.277,N,01323.263,E,038.9,077.4,190426,000.0,W*7A
$GPGGA,110147.178,5231.280,N,01323.280,E,1,12,1.0,0.0,M,0.0,M,,*64
$GPGSA,A,3,01,02,03,04,05,06,07,08,09,10,11,12,1.0,1.0,1.0*30
$GPRMC,110147.178,A,5231.280,N,01323.280,E,038.9,077.4,190426,000.0,W*7E
$GPGGA,110148.178,5231.282,N,01323.297,E,1,12,1.0,0.0,M,0.0,M,,*6F
$GPGSA,A,3,01,02,03,04,05,06,07,08,09,10,11,12,1.0,1.0,1.0*30
$GPRMC,110148.178,A,5231.282,N,01323.297,E,038.9,077.4,190426,000.0,W*75
$GPGGA,110149.178,5231.284,N,01323.314,E,1,12,1.0,0.0,M,0.0,M,,*62
$GPGSA,A,3,01,02,03,04,05,06,07,08,09,10,11,12,1.0,1.0,1.0*30
$GPRMC,110149.178,A,5231.284,N,01323.314,E,038.9,077.4,190426,000.0,W*78
$GPGGA,110150.178,5231.287,N,01323.332,E,1,12,1.0,0.0,M,0.0,M,,*6D
$GPGSA,A,3,01,02,03,04,05,06,07,08,09,10,11,12,1.0,1.0,1.0*30
$GPRMC,110150.178,A,5231.287,N,01323.332,E,038.9,077.4,190426,000.0,W*77
$GPGGA,110151.178,5231.289,N,01323.349,E,1,12,1.0,0.0,M,0.0,M,,*6E
$GPGSA,A,3,01,02,03,04,05,06,07,08,09,10,11,12,1.0,1.0,1.0*30
$GPRMC,110151.178,A,5231.289,N,01323.349,E,038.9,077.4,190426,000.0,W*74
$GPGGA,110152.178,5231.292,N,01323.366,E,1,12,1.0,0.0,M,0.0,M,,*6A
$GPGSA,A,3,01,02,03,04,05,06,07,08,09,10,11,12,1.0,1.0,1.0*30
$GPRMC,110152.178,A,5231.292,N,01323.366,E,038.9,077.4,190426,000.0,W*70
$GPGGA,110153.178,5231.294,N,01323.384,E,1,12,1.0,0.0,M,0.0,M,,*61
$GPGSA,A,3,01,02,03,04,05,06,07,08,09,10,11,12,1.0,1.0,1.0*30
$GPRMC,110153.178,A,5231.294,N,01323.384,E,038.9,077.4,190426,000.0,W*7B
$GPGGA,110154.178,5231.296,N,01323.401,E,1,12,1.0,0.0,M,0.0,M,,*6E
$GPGSA,A,3,01,02,03,04,05,06,07,08,09,10,11,12,1.0,1.0,1.0*30
$GPRMC,110154.178,A,5231.296,N,01323.401,E,038.9,077.4,190426,000.0,W*74
$GPGGA,110155.178,5231.299,N,01323.418,E,1,12,1.0,0.0,M,0.0,M,,*68
$GPGSA,A,3,01,02,03,04,05,06,07,08,09,10,11,12,1.0,1.0,1.0*30
$GPRMC,110155.178,A,5231.299,N,01323.418,E,038.9,077.4,190426,000.0,W*72
$GPGGA,110156.178,5231.301,N,01323.436,E,1,12,1.0,0.0,M,0.0,M,,*67
$GPGSA,A,3,01,02,03,04,05,06,07,08,09,10,11,12,1.0,1.0,1.0*30
$GPRMC,110156.178,A,5231.301,N,01323.436,E,038.9,077.4,190426,000.0,W*7D
$GPGGA,110157.178,5231.303,N,01323.453,E,1,12,1.0,0.0,M,0.0,M,,*67
$GPGSA,A,3,01,02,03,04,05,06,07,08,09,10,11,12,1.0,1.0,1.0*30
$GPRMC,110157.178,A,5231.303,N,01323.453,E,038.9,077.4,190426,000.0,W*7D
$GPGGA,110158.178,5231.306,N,01323.470,E,1,12,1.0,0.0,M,0.0,M,,*6C
$GPGSA,A,3,01,02,03,04,05,06,07,08,09,10,11,12,1.0,1.0,1.0*30
$GPRMC,110158.178,A,5231.306,N,01323.470,E,038.9,077.4,190426,000.0,W*76
$GPGGA,110159.178,5231.308,N,01323.488,E,1,12,1.0,0.0,M,0.0,M,,*64
$GPGSA,A,3,01,02,03,04,05,06,07,08,09,10,11,12,1.0,1.0,1.0*30
$GPRMC,110159.178,A,5231.308,N,01323.488,E,038.9,077.4,190426,000.0,W*7E
$GPGGA,110200.178,5231.310,N,01323.505,E,1,12,1.0,0.0,M,0.0,M,,*66
$GPGSA,A,3,01,02,03,04,05,06,07,08,09,10,11,12,1.0,1.0,1.0*30
$GPRMC,110200.178,A,5231.310,N,01323.505,E,038.9,077.4,190426,000.0,W*7C
$GPGGA,110201.178,5231.313,N,01323.522,E,1,12,1.0,0.0,M,0.0,M,,*61
$GPGSA,A,3,01,02,03,04,05,06,07,08,09,10,11,12,1.0,1.0,1.0*30
$GPRMC,110201.178,A,5231.313,N,01323.522,E,038.9,077.4,190426,000.0,W*7B
$GPGGA,110202.178,5231.315,N,01323.539,E,1,12,1.0,0.0,M,0.0,M,,*6E
$GPGSA,A,3,01,02,03,04,05,06,07,08,09,10,11,12,1.0,1.0,1.0*30
$GPRMC,110202.178,A,5231.315,N,01323.539,E,038.9,077.4,190426,000.0,W*74
$GPGGA,110203.178,5231.317,N,01323.557,E,1,12,1.0,0.0,M,0.0,M,,*65
$GPGSA,A,3,01,02,03,04,05,06,07,08,09,10,11,12,1.0,1.0,1.0*30
$GPRMC,110203.178,A,5231.317,N,01323.557,E,038.9,077.4,190426,000.0,W*7F
$GPGGA,110204.178,5231.320,N,01323.574,E,1,12,1.0,0.0,M,0.0,M,,*67
$GPGSA,A,3,01,02,03,04,05,06,07,08,09,10,11,12,1.0,1.0,1.0*30
$GPRMC,110204.178,A,5231.320,N,01323.574,E,038.9,077.4,190426,000.0,W*7D
$GPGGA,110205.178,5231.322,N,01323.591,E,1,12,1.0,0.0,M,0.0,M,,*6F
$GPGSA,A,3,01,02,03,04,05,06,07,08,09,10,11,12,1.0,1.0,1.0*30
$GPRMC,110205.178,A,5231.322,N,01323.591,E,038.9,077.4,190426,000.0,W*75
$GPGGA,110206.178,5231.324,N,01323.609,E,1,12,1.0,0.0,M,0.0,M,,*68
$GPGSA,A,3,01,02,03,04,05,06,07,08,09,10,11,12,1.0,1.0,1.0*30
$GPRMC,110206.178,A,5231.324,N,01323.609,E,038.9,077.4,190426,000.0,W*72
$GPGGA,110207.178,5231.327,N,01323.626,E,1,12,1.0,0.0,M,0.0,M,,*67
$GPGSA,A,3,01,02,03,04,05,06,07,08,09,10,11,12,1.0,1.0,1.0*30
$GPRMC,110207.178,A,5231.327,N,01323.626,E,038.9,077.4,190426,000.0,W*7D
$GPGGA,110208.178,5231.329,N,01323.643,E,1,12,1.0,0.0,M,0.0,M,,*65
$GPGSA,A,3,01,02,03,04,05,06,07,08,09,10,11,12,1.0,1.0,1.0*30
$GPRMC,110208.178,A,5231.329,N,01323.643,E,038.9,077.4,190426,000.0,W*7F
$GPGGA,110209.178,5231.332,N,01323.661,E,1,12,1.0,0.0,M,0.0,M,,*6E
$GPGSA,A,3,01,02,03,04,05,06,07,08,09,10,11,12,1.0,1.0,1.0*30
$GPRMC,110209.178,A,5231.332,N,01323.661,E,038.9,077.4,190426,000.0,W*74
$GPGGA,110210.178,5231.334,N,01323.678,E,1,12,1.0,0.0,M,0.0,M,,*68
$GPGSA,A,3,01,02,03,04,05,06,07,08,09,10,11,12,1.0,1.0,1.0*30
$GPRMC,110210.178,A,5231.334,N,01323.678,E,038.9,077.4,190426,000.0,W*72
$GPGGA,110211.178,5231.336,N,01323.695,E,1,12,1.0,0.0,M,0.0,M,,*68
$GPGSA,A,3,01,02,03,04,05,06,07,08,09,10,11,12,1.0,1.0,1.0*30
$GPRMC,110211.178,A,5231.336,N,01323.695,E,038.9,077.4,190426,000.0,W*72
$GPGGA,110212.178,5231.339,N,01323.713,E,1,12,1.0,0.0,M,0.0,M,,*6B
$GPGSA,A,3,01,02,03,04,05,06,07,08,09,10,11,12,1.0,1.0,1.0*30
$GPRMC,110212.178,A,5231.339,N,01323.713,E,038.9,077.4,190426,000.0,W*71
$GPGGA,110213.178,5231.341,N,01323.730,E,1,12,1.0,0.0,M,0.0,M,,*64
$GPGSA,A,3,01,02,03,04,05,06,07,08,09,10,11,12,1.0,1.0,1.0*30
$GPRMC,110213.178,A,5231.341,N,01323.730,E,038.9,077.4,190426,000.0,W*7E
$GPGGA,110214.178,5231.343,N,01323.747,E,1,12,1.0,0.0,M,0.0,M,,*61
$GPGSA,A,3,01,02,03,04,05,06,07,08,09,10,11,12,1.0,1.0,1.0*30
$GPRMC,110214.178,A,5231.343,N,01323.747,E,038.9,077.4,190426,000.0,W*7B
$GPGGA,110215.178,5231.346,N,01323.764,E,1,12,1.0,0.0,M,0.0,M,,*64
$GPGSA,A,3,01,02,03,04,05,06,07,08,09,10,11,12,1.0,1.0,1.0*30
$GPRMC,110215.178,A,5231.346,N,01323.764,E,038.9,077.4,190426,000.0,W*7E
$GPGGA,110216.178,5231.348,N,01323.782,E,1,12,1.0,0.0,M,0.0,M,,*61
$GPGSA,A,3,01,02,03,04,05,06,07,08,09,10,11,12,1.0,1.0,1.0*30
$GPRMC,110216.178,A,5231.348,N,01323.782,E,038.9,077.4,190426,000.0,W*7B
$GPGGA,110217.178,5231.350,N,01323.799,E,1,12,1.0,0.0,M,0.0,M,,*63
$GPGSA,A,3,01,02,03,04,05,06,07,08,09,10,11,12,1.0,1.0,1.0*30
$GPRMC,110217.178,A,5231.350,N,01323.799,E,038.9,077.4,190426,000.0,W*79
$GPGGA,110218.178,5231.353,N,01323.816,E,1,12,1.0,0.0,M,0.0,M,,*67
$GPGSA,A,3,01,02,03,04,05,06,07,08,09,10,11,12,1.0,1.0,1.0*30
$GPRMC,110218.178,A,5231.353,N,01323.816,E,038.9,077.4,190426,000.0,W*7D
$GPGGA,110219.178,5231.355,N,01323.834,E,1,12,1.0,0.0,M,0.0,M,,*60
$GPGSA,A,3,01,02,03,04,05,06,07,08,09,10,11,12,1.0,1.0,1.0*30
$GPRMC,110219.178,A,5231.355,N,01323.834,E,038.9,077.4,190426,000.0,W*7A
$GPGGA,110220.178,5231.357,N,01323.851,E,1,12,1.0,0.0,M,0.0,M,,*6B
$GPGSA,A,3,01,02,03,04,05,06,07,08,09,10,11,12,1.0,1.0,1.0*30
$GPRMC,110220.178,A,5231.357,N,01323.851,E,038.9,077.4,190426,000.0,W*71
$GPGGA,110221.178,5231.360,N,01323.868,E,1,12,1.0,0.0,M,0.0,M,,*64
$GPGSA,A,3,01,02,03,04,05,06,07,08,09,10,11,12,1.0,1.0,1.0*30
$GPRMC,110221.178,A,5231.360,N,01323.868,E,038.9,077.4,190426,000.0,W*7E
$GPGGA,110222.178,5231.362,N,01323.886,E,1,12,1.0,0.0,M,0.0,M,,*65
$GPGSA,A,3,01,02,03,04,05,06,07,08,09,10,11,12,1.0,1.0,1.0*30
$GPRMC,110222.178,A,5231.362,N,01323.886,E,038.9,077.4,190426,000.0,W*7F
$GPGGA,110223.178,5231.365,N,01323.903,E,1,12,1.0,0.0,M,0.0,M,,*6F
$GPGSA,A,3,01,02,03,04,05,06,07,08,09,10,11,12,1.0,1.0,1.0*30
$GPRMC,110223.178,A,5231.365,N,01323.903,E,038.9,077.4,190426,000.0,W*75
$GPGGA,110224.178,5231.367,N,01323.920,E,1,12,1.0,0.0,M,0.0,M,,*6B
$GPGSA,A,3,01,02,03,04,05,06,07,08,09,10,11,12,1.0,1.0,1.0*30
$GPRMC,110224.178,A,5231.367,N,01323.920,E,038.9,077.4,190426,000.0,W*71
$GPGGA,110225.178,5231.369,N,01323.938,E,1,12,1.0,0.0,M,0.0,M,,*6D
$GPGSA,A,3,01,02,03,04,05,06,07,08,09,10,11,12,1.0,1.0,1.0*30
$GPRMC,110225.178,A,5231.369,N,01323.938,E,038.9,077.4,190426,000.0,W*77
$GPGGA,110226.178,5231.372,N,01323.955,E,1,12,1.0,0.0,M,0.0,M,,*6F
$GPGSA,A,3,01,02,03,04,05,06,07,08,09,10,11,12,1.0,1.0,1.0*30
$GPRMC,110226.178,A,5231.372,N,01323.955,E,038.9,077.4,190426,000.0,W*75
$GPGGA,110227.178,5231.374,N,01323.972,E,1,12,1.0,0.0,M,0.0,M,,*6D
$GPGSA,A,3,01,02,03,04,05,06,07,08,09,10,11,12,1.0,1.0,1.0*30
$GPRMC,110227.178,A,5231.374,N,01323.972,E,038.9,077.4,190426,000.0,W*77
$GPGGA,110228.178,5231.376,N,01323.989,E,1,12,1.0,0.0,M,0.0,M,,*64
$GPGSA,A,3,01,02,03,04,05,06,07,08,09,10,11,12,1.0,1.0,1.0*30
$GPRMC,110228.178,A,5231.376,N,01323.989,E,038.9,077.4,190426,000.0,W*7E
$GPGGA,110229.178,5231.379,N,01324.007,E,1,12,1.0,0.0,M,0.0,M,,*62
$GPGSA,A,3,01,02,03,04,05,06,07,08,09,10,11,12,1.0,1.0,1.0*30
$GPRMC,110229.178,A,5231.379,N,01324.007,E,038.9,077.4,190426,000.0,W*78
$GPGGA,110230.178,5231.381,N,01324.024,E,1,12,1.0,0.0,M,0.0,M,,*6C
$GPGSA,A,3,01,02,03,04,05,06,07,08,09,10,11,12,1.0,1.0,1.0*30
$GPRMC,110230.178,A,5231.381,N,01324.024,E,038.9,077.4,190426,000.0,W*76
$GPGGA,110231.178,5231.383,N,01324.041,E,1,12,1.0,0.0,M,0.0,M,,*6C
$GPGSA,A,3,01,02,03,04,05,06,07,08,09,10,11,12,1.0,1.0,1.0*30
$GPRMC,110231.178,A,5231.383,N,01324.041,E,038.9,077.4,190426,000.0,W*76
$GPGGA,110232.178,5231.386,N,01324.059,E,1,12,1.0,0.0,M,0.0,M,,*63
$GPGSA,A,3,01,02,03,04,05,06,07,08,09,10,11,12,1.0,1.0,1.0*30
$GPRMC,110232.178,A,5231.386,N,01324.059,E,038.9,077.4,190426,000.0,W*79
$GPGGA,110233.178,5231.388,N,01324.076,E,1,12,1.0,0.0,M,0.0,M,,*61
$GPGSA,A,3,01,02,03,04,05,06,07,08,09,10,11,12,1.0,1.0,1.0*30
$GPRMC,110233.178,A,5231.388,N,01324.076,E,038.9,077.4,190426,000.0,W*7B
$GPGGA,110234.178,5231.390,N,01324.093,E,1,12,1.0,0.0,M,0.0,M,,*64
$GPGSA,A,3,01,02,03,04,05,06,07,08,09,10,11,12,1.0,1.0,1.0*30
$GPRMC,110234.178,A,5231.390,N,01324.093,E,038.9,077.4,190426,000.0,W*7E
$GPGGA,110235.178,5231.393,N,01324.111,E,1,12,1.0,0.0,M,0.0,M,,*6D
$GPGSA,A,3,01,02,03,04,05,06,07,08,09,10,11,12,1.0,1.0,1.0*30
$GPRMC,110235.178,A,5231.393,N,01324.111,E,038.9,077.4,190426,000.0,W*77
$GPGGA,110236.178,5231.395,N,01324.128,E,1,12,1.0,0.0,M,0.0,M,,*62
$GPGSA,A,3,01,02,03,04,05,06,07,08,09,10,11,12,1.0,1.0,1.0*30
$GPRMC,110236.178,A,5231.395,N,01324.128,E,038.9,077.4,190426,000.0,W*78
$GPGGA,110237.178,5231.398,N,01324.145,E,1,12,1.0,0.0,M,0.0,M,,*65
$GPGSA,A,3,01,02,03,04,05,06,07,08,09,10,11,12,1.0,1.0,1.0*30
$GPRMC,110237.178,A,5231.398,N,01324.145,E,038.9,077.4,190426,000.0,W*7F
$GPGGA,110238.178,5231.400,N,01324.163,E,1,12,1.0,0.0,M,0.0,M,,*68
$GPGSA,A,3,01,02,03,04,05,06,07,08,09,10,11,12,1.0,1.0,1.0*30
$GPRMC,110238.178,A,5231.400,N,01324.163,E,038.9,077.4,190426,000.0,W*72
$GPGGA,110239.178,5231.402,N,01324.180,E,1,12,1.0,0.0,M,0.0,M,,*66
$GPGSA,A,3,01,02,03,04,05,06,07,08,09,10,11,12,1.0,1.0,1.0*30
$GPRMC,110239.178,A,5231.402,N,01324.180,E,038.9,077.4,190426,000.0,W*7C
$GPGGA,110240.178,5231.405,N,01324.197,E,1,12,1.0,0.0,M,0.0,M,,*69
$GPGSA,A,3,01,02,03,04,05,06,07,08,09,10,11,12,1.0,1.0,1.0*30
$GPRMC,110240.178,A,5231.405,N,01324.197,E,038.9,077.4,190426,000.0,W*73
$GPGGA,110241.178,5231.407,N,01324.214,E,1,12,1.0,0.0,M,0.0,M,,*62
$GPGSA,A,3,01,02,03,04,05,06,07,08,09,10,11,12,1.0,1.0,1.0*30
$GPRMC,110241.178,A,5231.407,N,01324.214,E,038.9,077.4,190426,000.0,W*78
$GPGGA,110242.178,5231.409,N,01324.232,E,1,12,1.0,0.0,M,0.0,M,,*6B
$GPGSA,A,3,01,02,03,04,05,06,07,08,09,10,11,12,1.0,1.0,1.0*30
$GPRMC,110242.178,A,5231.409,N,01324.232,E,038.9,077.4,190426,000.0,W*71
$GPGGA,110243.178,5231.412,N,01324.249,E,1,12,1.0,0.0,M,0.0,M,,*6C
$GPGSA,A,3,01,02,03,04,05,06,07,08,09,10,11,12,1.0,1.0,1.0*30
$GPRMC,110243.178,A,5231.412,N,01324.249,E,038.9,077.4,190426,000.0,W*76
$GPGGA,110244.178,5231.414,N,01324.266,E,1,12,1.0,0.0,M,0.0,M,,*60
$GPGSA,A,3,01,02,03,04,05,06,07,08,09,10,11,12,1.0,1.0,1.0*30
$GPRMC,110244.178,A,5231.414,N,01324.266,E,038.9,077.4,190426,000.0,W*7A
$GPGGA,110245.178,5231.416,N,01324.284,E,1,12,1.0,0.0,M,0.0,M,,*6F
$GPGSA,A,3,01,02,03,04,05,06,07,08,09,10,11,12,1.0,1.0,1.0*30
$GPRMC,110245.178,A,5231.416,N,01324.284,E,038.9,077.4,190426,000.0,W*75
$GPGGA,110246.178,5231.419,N,01324.301,E,1,12,1.0,0.0,M,0.0,M,,*6F
$GPGSA,A,3,01,02,03,04,05,06,07,08,09,10,11,12,1.0,1.0,1.0*30
$GPRMC,110246.178,A,5231.419,N,01324.301,E,038.9,077.4,190426,000.0,W*75
$GPGGA,110247.178,5231.421,N,01324.318,E,1,12,1.0,0.0,M,0.0,M,,*6D
$GPGSA,A,3,01,02,03,04,05,06,07,08,09,10,11,12,1.0,1.0,1.0*30
$GPRMC,110247.178,A,5231.421,N,01324.318,E,038.9,077.4,190426,000.0,W*77
$GPGGA,110248.178,5231.423,N,01324.336,E,1,12,1.0,0.0,M,0.0,M,,*6C
$GPGSA,A,3,01,02,03,04,05,06,07,08,09,10,11,12,1.0,1.0,1.0*30
$GPRMC,110248.178,A,5231.423,N,01324.336,E,038.9,077.4,190426,000.0,W*76
$GPGGA,110249.178,5231.426,N,01324.353,E,1,12,1.0,0.0,M,0.0,M,,*6B
$GPGSA,A,3,01,02,03,04,05,06,07,08,09,10,11,12,1.0,1.0,1.0*30
$GPRMC,110249.178,A,5231.426,N,01324.353,E,038.9,077.4,190426,000.0,W*71
$GPGGA,110250.178,5231.428,N,01324.370,E,1,12,1.0,0.0,M,0.0,M,,*6C
$GPGSA,A,3,01,02,03,04,05,06,07,08,09,10,11,12,1.0,1.0,1.0*30
$GPRMC,110250.178,A,5231.428,N,01324.370,E,038.9,077.4,190426,000.0,W*76
$GPGGA,110251.178,5231.431,N,01324.388,E,1,12,1.0,0.0,M,0.0,M,,*62
$GPGSA,A,3,01,02,03,04,05,06,07,08,09,10,11,12,1.0,1.0,1.0*30
$GPRMC,110251.178,A,5231.431,N,01324.388,E,038.9,077.4,190426,000.0,W*78
$GPGGA,110252.178,5231.433,N,01324.405,E,1,12,1.0,0.0,M,0.0,M,,*61
$GPGSA,A,3,01,02,03,04,05,06,07,08,09,10,11,12,1.0,1.0,1.0*30
$GPRMC,110252.178,A,5231.433,N,01324.405,E,038.9,077.4,190426,000.0,W*7B
$GPGGA,110253.178,5231.435,N,01324.422,E,1,12,1.0,0.0,M,0.0,M,,*63
$GPGSA,A,3,01,02,03,04,05,06,07,08,09,10,11,12,1.0,1.0,1.0*30
$GPRMC,110253.178,A,5231.435,N,01324.422,E,038.9,077.4,190426,000.0,W*79
$GPGGA,110254.178,5231.438,N,01324.440,E,1,12,1.0,0.0,M,0.0,M,,*6D
$GPGSA,A,3,01,02,03,04,05,06,07,08,09,10,11,12,1.0,1.0,1.0*30
$GPRMC,110254.178,A,5231.438,N,01324.440,E,038.9,077.4,190426,000.0,W*77
$GPGGA,110255.178,5231.440,N,01324.457,E,1,12,1.0,0.0,M,0.0,M,,*65
$GPGSA,A,3,01,02,03,04,05,06,07,08,09,10,11,12,1.0,1.0,1.0*30
$GPRMC,110255.178,A,5231.440,N,01324.457,E,038.9,077.4,190426,000.0,W*7F
$GPGGA,110256.178,5231.442,N,01324.474,E,1,12,1.0,0.0,M,0.0,M,,*65
$GPGSA,A,3,01,02,03,04,05,06,07,08,09,10,11,12,1.0,1.0,1.0*30
$GPRMC,110256.178,A,5231.442,N,01324.474,E,038.9,077.4,190426,000.0,W*7F
$GPGGA,110257.178,5231.445,N,01324.491,E,1,12,1.0,0.0,M,0.0,M,,*68
$GPGSA,A,3,01,02,03,04,05,06,07,08,09,10,11,12,1.0,1.0,1.0*30
$GPRMC,110257.178,A,5231.445,N,01324.491,E,038.9,077.4,190426,000.0,W*72
$GPGGA,110258.178,5231.447,N,01324.509,E,1,12,1.0,0.0,M,0.0,M,,*65
$GPGSA,A,3,01,02,03,04,05,06,07,08,09,10,11,12,1.0,1.0,1.0*30
$GPRMC,110258.178,A,5231.447,N,01324.509,E,038.9,077.4,190426,000.0,W*7F
$GPGGA,110259.178,5231.449,N,01324.526,E,1,12,1.0,0.0,M,0.0,M,,*67
$GPGSA,A,3,01,02,03,04,05,06,07,08,09,10,11,12,1.0,1.0,1.0*30
$GPRMC,110259.178,A,5231.449,N,01324.526,E,038.9,077.4,190426,000.0,W*7D
$GPGGA,110300.178,5231.452,N,01324.543,E,1,12,1.0,0.0,M,0.0,M,,*63
$GPGSA,A,3,01,02,03,04,05,06,07,08,09,10,11,12,1.0,1.0,1.0*30
$GPRMC,110300.178,A,5231.452,N,01324.543,E,038.9,077.4,190426,000.0,W*79
$GPGGA,110301.178,5231.454,N,01324.561,E,1,12,1.0,0.0,M,0.0,M,,*64
$GPGSA,A,3,01,02,03,04,05,06,07,08,09,10,11,12,1.0,1.0,1.0*30
$GPRMC,110301.178,A,5231.454,N,01324.561,E,038.9,077.4,190426,000.0,W*7E
$GPGGA,110302.178,5231.456,N,01324.578,E,1,12,1.0,0.0,M,0.0,M,,*6D
$GPGSA,A,3,01,02,03,04,05,06,07,08,09,10,11,12,1.0,1.0,1.0*30
$GPRMC,110302.178,A,5231.456,N,01324.578,E,038.9,077.4,190426,000.0,W*77
$GPGGA,110303.178,5231.459,N,01324.595,E,1,12,1.0,0.0,M,0.0,M,,*60
$GPGSA,A,3,01,02,03,04,05,06,07,08,09,10,11,12,1.0,1.0,1.0*30
$GPRMC,110303.178,A,5231.459,N,01324.595,E,038.9,077.4,190426,000.0,W*7A
$GPGGA,110304.178,5231.461,N,01324.613,E,1,12,1.0,0.0,M,0.0,M,,*61
$GPGSA,A,3,01,02,03,04,05,06,07,08,09,10,11,12,1.0,1.0,1.0*30
$GPRMC,110304.178,A,5231.461,N,01324.613,E,038.9,077.4,190426,000.0,W*7B
$GPGGA,110305.178,5231.463,N,01324.630,E,1,12,1.0,0.0,M,0.0,M,,*63
$GPGSA,A,3,01,02,03,04,05,06,07,08,09,10,11,12,1.0,1.0,1.0*30
$GPRMC,110305.178,A,5231.463,N,01324.630,E,038.9,077.4,190426,000.0,W*79
$GPGGA,110306.178,5231.466,N,01324.647,E,1,12,1.0,0.0,M,0.0,M,,*65
$GPGSA,A,3,01,02,03,04,05,06,07,08,09,10,11,12,1.0,1.0,1.0*30
$GPRMC,110306.178,A,5231.466,N,01324.647,E,038.9,077.4,190426,000.0,W*7F
$GPGGA,110307.178,5231.468,N,01324.665,E,1,12,1.0,0.0,M,0.0,M,,*6A
$GPGSA,A,3,01,02,03,04,05,06,07,08,09,10,11,12,1.0,1.0,1.0*30
$GPRMC,110307.178,A,5231.468,N,01324.665,E,038.9,077.4,190426,000.0,W*70
$GPGGA,110308.178,5231.471,N,01324.682,E,1,12,1.0,0.0,M,0.0,M,,*64
$GPGSA,A,3,01,02,03,04,05,06,07,08,09,10,11,12,1.0,1.0,1.0*30
$GPRMC,110308.178,A,5231.471,N,01324.682,E,038.9,077.4,190426,000.0,W*7E
$GPGGA,110309.178,5231.473,N,01324.699,E,1,12,1.0,0.0,M,0.0,M,,*6D
$GPGSA,A,3,01,02,03,04,05,06,07,08,09,10,11,12,1.0,1.0,1.0*30
$GPRMC,110309.178,A,5231.473,N,01324.699,E,038.9,077.4,190426,000.0,W*77
$GPGGA,110310.178,5231.475,N,01324.716,E,1,12,1.0,0.0,M,0.0,M,,*65
$GPGSA,A,3,01,02,03,04,05,06,07,08,09,10,11,12,1.0,1.0,1.0*30
$GPRMC,110310.178,A,5231.475,N,01324.716,E,038.9,077.4,190426,000.0,W*7F
$GPGGA,110311.178,5231.478,N,01324.734,E,1,12,1.0,0.0,M,0.0,M,,*69
$GPGSA,A,3,01,02,03,04,05,06,07,08,09,10,11,12,1.0,1.0,1.0*30
$GPRMC,110311.178,A,5231.478,N,01324.734,E,038.9,083.1,190426,000.0,W*7D
$GPGGA,110312.178,5231.479,N,01324.751,E,1,12,1.0,0.0,M,0.0,M,,*68
$GPGSA,A,3,01,02,03,04,05,06,07,08,09,10,11,12,1.0,1.0,1.0*30
$GPRMC,110312.178,A,5231.479,N,01324.751,E,038.9,083.1,190426,000.0,W*7C
$GPGGA,110313.178,5231.480,N,01324.769,E,1,12,1.0,0.0,M,0.0,M,,*64
$GPGSA,A,3,01,02,03,04,05,06,07,08,09,10,11,12,1.0,1.0,1.0*30
$GPRMC,110313.178,A,5231.480,N,01324.769,E,038.9,083.1,190426,000.0,W*70
$GPGGA,110314.178,5231.481,N,01324.787,E,1,12,1.0,0.0,M,0.0,M,,*62
$GPGSA,A,3,01,02,03,04,05,06,07,08,09,10,11,12,1.0,1.0,1.0*30
$GPRMC,110314.178,A,5231.481,N,01324.787,E,038.9,083.1,190426,000.0,W*76
$GPGGA,110315.178,5231.483,N,01324.804,E,1,12,1.0,0.0,M,0.0,M,,*65
$GPGSA,A,3,01,02,03,04,05,06,07,08,09,10,11,12,1.0,1.0,1.0*30
$GPRMC,110315.178,A,5231.483,N,01324.804,E,038.9,083.1,190426,000.0,W*71
$GPGGA,110316.178,5231.484,N,01324.822,E,1,12,1.0,0.0,M,0.0,M,,*65
$GPGSA,A,3,01,02,03,04,05,06,07,08,09,10,11,12,1.0,1.0,1.0*30
$GPRMC,110316.178,A,5231.484,N,01324.822,E,038.9,083.1,190426,000.0,W*71
$GPGGA,110317.178,5231.485,N,01324.839,E,1,12,1.0,0.0,M,0.0,M,,*6F
$GPGSA,A,3,01,02,03,04,05,06,07,08,09,10,11,12,1.0,1.0,1.0*30
$GPRMC,110317.178,A,5231.485,N,01324.839,E,038.9,083.1,190426,000.0,W*7B
$GPGGA,110318.178,5231.487,N,01324.857,E,1,12,1.0,0.0,M,0.0,M,,*6A
$GPGSA,A,3,01,02,03,04,05,06,07,08,09,10,11,12,1.0,1.0,1.0*30
$GPRMC,110318.178,A,5231.487,N,01324.857,E,038.9,083.1,190426,000.0,W*7E
$GPGGA,110319.178,5231.488,N,01324.875,E,1,12,1.0,0.0,M,0.0,M,,*64
$GPGSA,A,3,01,02,03,04,05,06,07,08,09,10,11,12,1.0,1.0,1.0*30
$GPRMC,110319.178,A,5231.488,N,01324.875,E,038.9,083.1,190426,000.0,W*70
$GPGGA,110320.178,5231.489,N,01324.892,E,1,12,1.0,0.0,M,0.0,M,,*66
$GPGSA,A,3,01,02,03,04,05,06,07,08,09,10,11,12,1.0,1.0,1.0*30
$GPRMC,110320.178,A,5231.489,N,01324.892,E,038.9,083.1,190426,000.0,W*72
$GPGGA,110321.178,5231.491,N,01324.910,E,1,12,1.0,0.0,M,0.0,M,,*65
$GPGSA,A,3,01,02,03,04,05,06,07,08,09,10,11,12,1.0,1.0,1.0*30
$GPRMC,110321.178,A,5231.491,N,01324.910,E,038.9,083.1,190426,000.0,W*71
$GPGGA,110322.178,5231.492,N,01324.927,E,1,12,1.0,0.0,M,0.0,M,,*61
$GPGSA,A,3,01,02,03,04,05,06,07,08,09,10,11,12,1.0,1.0,1.0*30
$GPRMC,110322.178,A,5231.492,N,01324.927,E,038.9,083.1,190426,000.0,W*75
$GPGGA,110323.178,5231.493,N,01324.945,E,1,12,1.0,0.0,M,0.0,M,,*65
$GPGSA,A,3,01,02,03,04,05,06,07,08,09,10,11,12,1.0,1.0,1.0*30
$GPRMC,110323.178,A,5231.493,N,01324.945,E,038.9,083.1,190426,000.0,W*71
$GPGGA,110324.178,5231.494,N,01324.963,E,1,12,1.0,0.0,M,0.0,M,,*61
$GPGSA,A,3,01,02,03,04,05,06,07,08,09,10,11,12,1.0,1.0,1.0*30
$GPRMC,110324.178,A,5231.494,N,01324.963,E,038.9,083.1,190426,000.0,W*75
$GPGGA,110325.178,5231.496,N,01324.980,E,1,12,1.0,0.0,M,0.0,M,,*6F
$GPGSA,A,3,01,02,03,04,05,06,07,08,09,10,11,12,1.0,1.0,1.0*30
$GPRMC,110325.178,A,5231.496,N,01324.980,E,038.9,083.1,190426,000.0,W*7B
$GPGGA,110326.178,5231.497,N,01324.998,E,1,12,1.0,0.0,M,0.0,M,,*64
$GPGSA,A,3,01,02,03,04,05,06,07,08,09,10,11,12,1.0,1.0,1.0*30
$GPRMC,110326.178,A,5231.497,N,01324.998,E,038.9,083.1,190426,000.0,W*70
$GPGGA,110327.178,5231.498,N,01325.016,E,1,12,1.0,0.0,M,0.0,M,,*64
$GPGSA,A,3,01,02,03,04,05,06,07,08,09,10,11,12,1.0,1.0,1.0*30
$GPRMC,110327.178,A,5231.498,N,01325.016,E,038.9,083.1,190426,000.0,W*70
$GPGGA,110328.178,5231.500,N,01325.033,E,1,12,1.0,0.0,M,0.0,M,,*6C
$GPGSA,A,3,01,02,03,04,05,06,07,08,09,10,11,12,1.0,1.0,1.0*30
$GPRMC,110328.178,A,5231.500,N,01325.033,E,038.9,083.1,190426,000.0,W*78
$GPGGA,110329.178,5231.501,N,01325.051,E,1,12,1.0,0.0,M,0.0,M,,*68
$GPGSA,A,3,01,02,03,04,05,06,07,08,09,10,11,12,1.0,1.0,1.0*30
$GPRMC,110329.178,A,5231.501,N,01325.051,E,038.9,083.1,190426,000.0,W*7C
$GPGGA,110330.178,5231.502,N,01325.068,E,1,12,1.0,0.0,M,0.0,M,,*69
$GPGSA,A,3,01,02,03,04,05,06,07,08,09,10,11,12,1.0,1.0,1.0*30
$GPRMC,110330.178,A,5231.502,N,01325.068,E,038.9,083.1,190426,000.0,W*7D
$GPGGA,110331.178,5231.503,N,01325.086,E,1,12,1.0,0.0,M,0.0,M,,*69
$GPGSA,A,3,01,02,03,04,05,06,07,08,09,10,11,12,1.0,1.0,1.0*30
$GPRMC,110331.178,A,5231.503,N,01325.086,E,038.9,083.1,190426,000.0,W*7D
$GPGGA,110332.178,5231.505,N,01325.104,E,1,12,1.0,0.0,M,0.0,M,,*67
$GPGSA,A,3,01,02,03,04,05,06,07,08,09,10,11,12,1.0,1.0,1.0*30
$GPRMC,110332.178,A,5231.505,N,01325.104,E,038.9,083.1,190426,000.0,W*73
$GPGGA,110333.178,5231.506,N,01325.121,E,1,12,1.0,0.0,M,0.0,M,,*62
$GPGSA,A,3,01,02,03,04,05,06,07,08,09,10,11,12,1.0,1.0,1.0*30
$GPRMC,110333.178,A,5231.506,N,01325.121,E,038.9,083.1,190426,000.0,W*76
$GPGGA,110334.178,5231.507,N,01325.139,E,1,12,1.0,0.0,M,0.0,M,,*6D
$GPGSA,A,3,01,02,03,04,05,06,07,08,09,10,11,12,1.0,1.0,1.0*30
$GPRMC,110334.178,A,5231.507,N,01325.139,E,038.9,083.1,190426,000.0,W*79
$GPGGA,110335.178,5231.509,N,01325.156,E,1,12,1.0,0.0,M,0.0,M,,*6B
$GPGSA,A,3,01,02,03,04,05,06,07,08,09,10,11,12,1.0,1.0,1.0*30
$GPRMC,110335.178,A,5231.509,N,01325.156,E,038.9,083.1,190426,000.0,W*7F
$GPGGA,110336.178,5231.510,N,01325.174,E,1,12,1.0,0.0,M,0.0,M,,*60
$GPGSA,A,3,01,02,03,04,05,06,07,08,09,10,11,12,1.0,1.0,1.0*30
$GPRMC,110336.178,A,5231.510,N,01325.174,E,038.9,083.1,190426,000.0,W*74
$GPGGA,110337.178,5231.511,N,01325.192,E,1,12,1.0,0.0,M,0.0,M,,*68
$GPGSA,A,3,01,02,03,04,05,06,07,08,09,10,11,12,1.0,1.0,1.0*30
$GPRMC,110337.178,A,5231.511,N,01325.192,E,038.9,083.1,190426,000.0,W*7C
$GPGGA,110338.178,5231.512,N,01325.209,E,1,12,1.0,0.0,M,0.0,M,,*65
$GPGSA,A,3,01,02,03,04,05,06,07,08,09,10,11,12,1.0,1.0,1.0*30
$GPRMC,110338.178,A,5231.512,N,01325.209,E,038.9,083.1,190426,000.0,W*71
$GPGGA,110339.178,5231.514,N,01325.227,E,1,12,1.0,0.0,M,0.0,M,,*6E
$GPGSA,A,3,01,02,03,04,05,06,07,08,09,10,11,12,1.0,1.0,1.0*30
$GPRMC,110339.178,A,5231.514,N,01325.227,E,038.9,083.1,190426,000.0,W*7A
$GPGGA,110340.178,5231.515,N,01325.244,E,1,12,1.0,0.0,M,0.0,M,,*64
$GPGSA,A,3,01,02,03,04,05,06,07,08,09,10,11,12,1.0,1.0,1.0*30
$GPRMC,110340.178,A,5231.515,N,01325.244,E,038.9,083.1,190426,000.0,W*70
$GPGGA,110341.178,5231.516,N,01325.262,E,1,12,1.0,0.0,M,0.0,M,,*62
$GPGSA,A,3,01,02,03,04,05,06,07,08,09,10,11,12,1.0,1.0,1.0*30
$GPRMC,110341.178,A,5231.516,N,01325.262,E,038.9,083.1,190426,000.0,W*76
$GPGGA,110342.178,5231.518,N,01325.280,E,1,12,1.0,0.0,M,0.0,M,,*63
$GPGSA,A,3,01,02,03,04,05,06,07,08,09,10,11,12,1.0,1.0,1.0*30
$GPRMC,110342.178,A,5231.518,N,01325.280,E,038.9,083.1,190426,000.0,W*77
$GPGGA,110343.178,5231.519,N,01325.297,E,1,12,1.0,0.0,M,0.0,M,,*65
$GPGSA,A,3,01,02,03,04,05,06,07,08,09,10,11,12,1.0,1.0,1.0*30
$GPRMC,110343.178,A,5231.519,N,01325.297,E,038.9,083.1,190426,000.0,W*71
$GPGGA,110344.178,5231.520,N,01325.315,E,1,12,1.0,0.0,M,0.0,M,,*63
$GPGSA,A,3,01,02,03,04,05,06,07,08,09,10,11,12,1.0,1.0,1.0*30
$GPRMC,110344.178,A,5231.520,N,01325.315,E,038.9,083.1,190426,000.0,W*77
$GPGGA,110345.178,5231.522,N,01325.333,E,1,12,1.0,0.0,M,0.0,M,,*64
$GPGSA,A,3,01,02,03,04,05,06,07,08,09,10,11,12,1.0,1.0,1.0*30
$GPRMC,110345.178,A,5231.522,N,01325.333,E,038.9,083.1,190426,000.0,W*70
$GPGGA,110346.178,5231.523,N,01325.350,E,1,12,1.0,0.0,M,0.0,M,,*63
$GPGSA,A,3,01,02,03,04,05,06,07,08,09,10,11,12,1.0,1.0,1.0*30
$GPRMC,110346.178,A,5231.523,N,01325.350,E,038.9,083.1,190426,000.0,W*77
$GPGGA,110347.178,5231.524,N,01325.368,E,1,12,1.0,0.0,M,0.0,M,,*6E
$GPGSA,A,3,01,02,03,04,05,06,07,08,09,10,11,12,1.0,1.0,1.0*30
$GPRMC,110347.178,A,5231.524,N,01325.368,E,038.9,083.1,190426,000.0,W*7A
$GPGGA,110348.178,5231.525,N,01325.385,E,1,12,1.0,0.0,M,0.0,M,,*63
$GPGSA,A,3,01,02,03,04,05,06,07,08,09,10,11,12,1.0,1.0,1.0*30
$GPRMC,110348.178,A,5231.525,N,01325.385,E,038.9,083.1,190426,000.0,W*77
$GPGGA,110349.178,5231.527,N,01325.403,E,1,12,1.0,0.0,M,0.0,M,,*69
$GPGSA,A,3,01,02,03,04,05,06,07,08,09,10,11,12,1.0,1.0,1.0*30
$GPRMC,110349.178,A,5231.527,N,01325.403,E,038.9,083.1,190426,000.0,W*7D
$GPGGA,110350.178,5231.528,N,01325.421,E,1,12,1.0,0.0,M,0.0,M,,*6E
$GPGSA,A,3,01,02,03,04,05,06,07,08,09,10,11,12,1.0,1.0,1.0*30
$GPRMC,110350.178,A,5231.528,N,01325.421,E,038.9,083.1,190426,000.0,W*7A
$GPGGA,110351.178,5231.529,N,01325.438,E,1,12,1.0,0.0,M,0.0,M,,*66
$GPGSA,A,3,01,02,03,04,05,06,07,08,09,10,11,12,1.0,1.0,1.0*30
$GPRMC,110351.178,A,5231.529,N,01325.438,E,038.9,083.1,190426,000.0,W*72
$GPGGA,110352.178,5231.531,N,01325.456,E,1,12,1.0,0.0,M,0.0,M,,*64
$GPGSA,A,3,01,02,03,04,05,06,07,08,09,10,11,12,1.0,1.0,1.0*30
$GPRMC,110352.178,A,5231.531,N,01325.456,E,038.9,083.1,190426,000.0,W*70
$GPGGA,110353.178,5231.532,N,01325.473,E,1,12,1.0,0.0,M,0.0,M,,*61
$GPGSA,A,3,01,02,03,04,05,06,07,08,09,10,11,12,1.0,1.0,1.0*30
$GPRMC,110353.178,A,5231.532,N,01325.473,E,038.9,083.1,190426,000.0,W*75
$GPGGA,110354.178,5231.533,N,01325.491,E,1,12,1.0,0.0,M,0.0,M,,*6B
$GPGSA,A,3,01,02,03,04,05,06,07,08,09,10,11,12,1.0,1.0,1.0*30
$GPRMC,110354.178,A,5231.533,N,01325.491,E,038.9,083.1,190426,000.0,W*7F
$GPGGA,110355.178,5231.534,N,01325.509,E,1,12,1.0,0.0,M,0.0,M,,*6D
$GPGSA,A,3,01,02,03,04,05,06,07,08,09,10,11,12,1.0,1.0,1.0*30
$GPRMC,110355.178,A,5231.534,N,01325.509,E,038.9,083.1,190426,000.0,W*79
$GPGGA,110356.178,5231.536,N,01325.526,E,1,12,1.0,0.0,M,0.0,M,,*61
$GPGSA,A,3,01,02,03,04,05,06,07,08,09,10,11,12,1.0,1.0,1.0*30
$GPRMC,110356.178,A,5231.536,N,01325.526,E,038.9,083.1,190426,000.0,W*75
$GPGGA,110357.178,5231.537,N,01325.544,E,1,12,1.0,0.0,M,0.0,M,,*65
$GPGSA,A,3,01,02,03,04,05,06,07,08,09,10,11,12,1.0,1.0,1.0*30
$GPRMC,110357.178,A,5231.537,N,01325.544,E,038.9,083.1,190426,000.0,W*71
$GPGGA,110358.178,5231.538,N,01325.561,E,1,12,1.0,0.0,M,0.0,M,,*62
$GPGSA,A,3,01,02,03,04,05,06,07,08,09,10,11,12,1.0,1.0,1.0*30
$GPRMC,110358.178,A,5231.538,N,01325.561,E,038.9,083.1,190426,000.0,W*76
$GPGGA,110359.178,5231.540,N,01325.579,E,1,12,1.0,0.0,M,0.0,M,,*65
$GPGSA,A,3,01,02,03,04,05,06,07,08,09,10,11,12,1.0,1.0,1.0*30
$GPRMC,110359.178,A,5231.540,N,01325.579,E,038.9,083.1,190426,000.0,W*71
$GPGGA,110400.178,5231.541,N,01325.597,E,1,12,1.0,0.0,M,0.0,M,,*6F
$GPGSA,A,3,01,02,03,04,05,06,07,08,09,10,11,12,1.0,1.0,1.0*30
$GPRMC,110400.178,A,5231.541,N,01325.597,E,038.9,083.1,190426,000.0,W*7B
$GPGGA,110401.178,5231.542,N,01325.614,E,1,12,1.0,0.0,M,0.0,M,,*65
$GPGSA,A,3,01,02,03,04,05,06,07,08,09,10,11,12,1.0,1.0,1.0*30
$GPRMC,110401.178,A,5231.542,N,01325.614,E,038.9,083.1,190426,000.0,W*71
$GPGGA,110402.178,5231.543,N,01325.632,E,1,12,1.0,0.0,M,0.0,M,,*63
$GPGSA,A,3,01,02,03,04,05,06,07,08,09,10,11,12,1.0,1.0,1.0*30
$GPRMC,110402.178,A,5231.543,N,01325.632,E,038.9,083.1,190426,000.0,W*77
$GPGGA,110403.178,5231.545,N,01325.650,E,1,12,1.0,0.0,M,0.0,M,,*60
$GPGSA,A,3,01,02,03,04,05,06,07,08,09,10,11,12,1.0,1.0,1.0*30
$GPRMC,110403.178,A,5231.545,N,01325.650,E,038.9,083.1,190426,000.0,W*74
$GPGGA,110404.178,5231.546,N,01325.667,E,1,12,1.0,0.0,M,0.0,M,,*60
$GPGSA,A,3,01,02,03,04,05,06,07,08,09,10,11,12,1.0,1.0,1.0*30
$GPRMC,110404.178,A,5231.546,N,01325.667,E,038.9,083.1,190426,000.0,W*74
$GPGGA,110405.178,5231.547,N,01325.685,E,1,12,1.0,0.0,M,0.0,M,,*6C
$GPGSA,A,3,01,02,03,04,05,06,07,08,09,10,11,12,1.0,1.0,1.0*30
$GPRMC,110405.178,A,5231.547,N,01325.685,E,038.9,083.1,190426,000.0,W*78
$GPGGA,110406.178,5231.549,N,01325.702,E,1,12,1.0,0.0,M,0.0,M,,*6F
$GPGSA,A,3,01,02,03,04,05,06,07,08,09,10,11,12,1.0,1.0,1.0*30
$GPRMC,110406.178,A,5231.549,N,01325.702,E,038.9,083.1,190426,000.0,W*7B
$GPGGA,110407.178,5231.550,N,01325.720,E,1,12,1.0,0.0,M,0.0,M,,*66
$GPGSA,A,3,01,02,03,04,05,06,07,08,09,10,11,12,1.0,1.0,1.0*30
$GPRMC,110407.178,A,5231.550,N,01325.720,E,038.9,083.1,190426,000.0,W*72
$GPGGA,110408.178,5231.551,N,01325.738,E,1,12,1.0,0.0,M,0.0,M,,*61
$GPGSA,A,3,01,02,03,04,05,06,07,08,09,10,11,12,1.0,1.0,1.0*30
$GPRMC,110408.178,A,5231.551,N,01325.738,E,038.9,083.1,190426,000.0,W*75
$GPGGA,110409.178,5231.552,N,01325.755,E,1,12,1.0,0.0,M,0.0,M,,*68
$GPGSA,A,3,01,02,03,04,05,06,07,08,09,10,11,12,1.0,1.0,1.0*30
$GPRMC,110409.178,A,5231.552,N,01325.755,E,038.9,083.1,190426,000.0,W*7C
$GPGGA,110410.178,5231.554,N,01325.773,E,1,12,1.0,0.0,M,0.0,M,,*62
$GPGSA,A,3,01,02,03,04,05,06,07,08,09,10,11,12,1.0,1.0,1.0*30
$GPRMC,110410.178,A,5231.554,N,01325.773,E,038.9,083.1,190426,000.0,W*76
$GPGGA,110411.178,5231.555,N,01325.790,E,1,12,1.0,0.0,M,0.0,M,,*6F
$GPGSA,A,3,01,02,03,04,05,06,07,08,09,10,11,12,1.0,1.0,1.0*30
$GPRMC,110411.178,A,5231.555,N,01325.790,E,038.9,083.1,190426,000.0,W*7B
$GPGGA,110412.178,5231.556,N,01325.808,E,1,12,1.0,0.0,M,0.0,M,,*61
$GPGSA,A,3,01,02,03,04,05,06,07,08,09,10,11,12,1.0,1.0,1.0*30
$GPRMC,110412.178,A,5231.556,N,01325.808,E,038.9,083.1,190426,000.0,W*75
$GPGGA,110413.178,5231.558,N,01325.826,E,1,12,1.0,0.0,M,0.0,M,,*62
$GPGSA,A,3,01,02,03,04,05,06,07,08,09,10,11,12,1.0,1.0,1.0*30
$GPRMC,110413.178,A,5231.558,N,01325.826,E,038.9,083.1,190426,000.0,W*76
$GPGGA,110414.178,5231.559,N,01325.843,E,1,12,1.0,0.0,M,0.0,M,,*67
$GPGSA,A,3,01,02,03,04,05,06,07,08,09,10,11,12,1.0,1.0,1.0*30
$GPRMC,110414.178,A,5231.559,N,01325.843,E,038.9,083.1,190426,000.0,W*73
$GPGGA,110415.178,5231.560,N,01325.861,E,1,12,1.0,0.0,M,0.0,M,,*6C
$GPGSA,A,3,01,02,03,04,05,06,07,08,09,10,11,12,1.0,1.0,1.0*30
$GPRMC,110415.178,A,5231.560,N,01325.861,E,038.9,083.1,190426,000.0,W*78
$GPGGA,110416.178,5231.562,N,01325.878,E,1,12,1.0,0.0,M,0.0,M,,*65
$GPGSA,A,3,01,02,03,04,05,06,07,08,09,10,11,12,1.0,1.0,1.0*30
$GPRMC,110416.178,A,5231.562,N,01325.878,E,038.9,083.1,190426,000.0,W*71
$GPGGA,110417.178,5231.563,N,01325.896,E,1,12,1.0,0.0,M,0.0,M,,*65
$GPGSA,A,3,01,02,03,04,05,06,07,08,09,10,11,12,1.0,1.0,1.0*30
$GPRMC,110417.178,A,5231.563,N,01325.896,E,038.9,083.1,190426,000.0,W*71
$GPGGA,110418.178,5231.564,N,01325.914,E,1,12,1.0,0.0,M,0.0,M,,*66
$GPGSA,A,3,01,02,03,04,05,06,07,08,09,10,11,12,1.0,1.0,1.0*30
$GPRMC,110418.178,A,5231.564,N,01325.914,E,038.9,083.1,190426,000.0,W*72
$GPGGA,110419.178,5231.565,N,01325.931,E,1,12,1.0,0.0,M,0.0,M,,*61
$GPGSA,A,3,01,02,03,04,05,06,07,08,09,10,11,12,1.0,1.0,1.0*30
$GPRMC,110419.178,A,5231.565,N,01325.931,E,038.9,083.1,190426,000.0,W*75
$GPGGA,110420.178,5231.567,N,01325.949,E,1,12,1.0,0.0,M,0.0,M,,*66
$GPGSA,A,3,01,02,03,04,05,06,07,08,09,10,11,12,1.0,1.0,1.0*30
$GPRMC,110420.178,A,5231.567,N,01325.949,E,038.9,083.1,190426,000.0,W*72
$GPGGA,110421.178,5231.568,N,01325.967,E,1,12,1.0,0.0,M,0.0,M,,*64
$GPGSA,A,3,01,02,03,04,05,06,07,08,09,10,11,12,1.0,1.0,1.0*30
$GPRMC,110421.178,A,5231.568,N,01325.967,E,038.9,083.1,190426,000.0,W*70
$GPGGA,110422.178,5231.569,N,01325.984,E,1,12,1.0,0.0,M,0.0,M,,*6B
$GPGSA,A,3,01,02,03,04,05,06,07,08,09,10,11,12,1.0,1.0,1.0*30
$GPRMC,110422.178,A,5231.569,N,01325.984,E,038.9,083.1,190426,000.0,W*7F
$GPGGA,110423.178,5231.571,N,01326.002,E,1,12,1.0,0.0,M,0.0,M,,*67
$GPGSA,A,3,01,02,03,04,05,06,07,08,09,10,11,12,1.0,1.0,1.0*30
$GPRMC,110423.178,A,5231.571,N,01326.002,E,038.9,083.1,190426,000.0,W*73
$GPGGA,110424.178,5231.572,N,01326.019,E,1,12,1.0,0.0,M,0.0,M,,*69
$GPGSA,A,3,01,02,03,04,05,06,07,08,09,10,11,12,1.0,1.0,1.0*30
$GPRMC,110424.178,A,5231.572,N,01326.019,E,038.9,083.1,190426,000.0,W*7D
$GPGGA,110425.178,5231.573,N,01326.037,E,1,12,1.0,0.0,M,0.0,M,,*65
$GPGSA,A,3,01,02,03,04,05,06,07,08,09,10,11,12,1.0,1.0,1.0*30
$GPRMC,110425.178,A,5231.573,N,01326.037,E,038.9,083.1,190426,000.0,W*71
$GPGGA,110426.178,5231.574,N,01326.055,E,1,12,1.0,0.0,M,0.0,M,,*65
$GPGSA,A,3,01,02,03,04,05,06,07,08,09,10,11,12,1.0,1.0,1.0*30
$GPRMC,110426.178,A,5231.574,N,01326.055,E,038.9,083.1,190426,000.0,W*71
$GPGGA,110427.178,5231.576,N,01326.072,E,1,12,1.0,0.0,M,0.0,M,,*63
$GPGSA,A,3,01,02,03,04,05,06,07,08,09,10,11,12,1.0,1.0,1.0*30
$GPRMC,110427.178,A,5231.576,N,01326.072,E,038.9,083.1,190426,000.0,W*77
$GPGGA,110428.178,5231.577,N,01326.090,E,1,12,1.0,0.0,M,0.0,M,,*61
$GPGSA,A,3,01,02,03,04,05,06,07,08,09,10,11,12,1.0,1.0,1.0*30
$GPRMC,110428.178,A,5231.577,N,01326.090,E,038.9,083.1,190426,000.0,W*75
$GPGGA,110429.178,5231.578,N,01326.107,E,1,12,1.0,0.0,M,0.0,M,,*60
$GPGSA,A,3,01,02,03,04,05,06,07,08,09,10,11,12,1.0,1.0,1.0*30
$GPRMC,110429.178,A,5231.578,N,01326.107,E,038.9,083.1,190426,000.0,W*74
$GPGGA,110430.178,5231.580,N,01326.125,E,1,12,1.0,0.0,M,0.0,M,,*6F
$GPGSA,A,3,01,02,03,04,05,06,07,08,09,10,11,12,1.0,1.0,1.0*30
$GPRMC,110430.178,A,5231.580,N,01326.125,E,038.9,083.1,190426,000.0,W*7B
$GPGGA,110431.178,5231.581,N,01326.143,E,1,12,1.0,0.0,M,0.0,M,,*6F
$GPGSA,A,3,01,02,03,04,05,06,07,08,09,10,11,12,1.0,1.0,1.0*30
$GPRMC,110431.178,A,5231.581,N,01326.143,E,038.9,083.1,190426,000.0,W*7B
$GPGGA,110432.178,5231.582,N,01326.160,E,1,12,1.0,0.0,M,0.0,M,,*6E
$GPGSA,A,3,01,02,03,04,05,06,07,08,09,10,11,12,1.0,1.0,1.0*30
$GPRMC,110432.178,A,5231.582,N,01326.160,E,038.9,083.1,190426,000.0,W*7A
$GPGGA,110433.178,5231.583,N,01326.178,E,1,12,1.0,0.0,M,0.0,M,,*67
$GPGSA,A,3,01,02,03,04,05,06,07,08,09,10,11,12,1.0,1.0,1.0*30
$GPRMC,110433.178,A,5231.583,N,01326.178,E,038.9,083.1,190426,000.0,W*73
$GPGGA,110434.178,5231.585,N,01326.195,E,1,12,1.0,0.0,M,0.0,M,,*65
$GPGSA,A,3,01,02,03,04,05,06,07,08,09,10,11,12,1.0,1.0,1.0*30
$GPRMC,110434.178,A,5231.585,N,01326.195,E,038.9,083.1,190426,000.0,W*71
$GPGGA,110435.178,5231.586,N,01326.213,E,1,12,1.0,0.0,M,0.0,M,,*6A
$GPGSA,A,3,01,02,03,04,05,06,07,08,09,10,11,12,1.0,1.0,1.0*30
$GPRMC,110435.178,A,5231.586,N,01326.213,E,038.9,083.1,190426,000.0,W*7E
$GPGGA,110436.178,5231.587,N,01326.231,E,1,12,1.0,0.0,M,0.0,M,,*68
$GPGSA,A,3,01,02,03,04,05,06,07,08,09,10,11,12,1.0,1.0,1.0*30
$GPRMC,110436.178,A,5231.587,N,01326.231,E,038.9,083.1,190426,000.0,W*7C
$GPGGA,110437.178,5231.589,N,01326.248,E,1,12,1.0,0.0,M,0.0,M,,*69
$GPGSA,A,3,01,02,03,04,05,06,07,08,09,10,11,12,1.0,1.0,1.0*30
$GPRMC,110437.178,A,5231.589,N,01326.248,E,038.9,083.1,190426,000.0,W*7D
$GPGGA,110438.178,5231.590,N,01326.266,E,1,12,1.0,0.0,M,0.0,M,,*62
$GPGSA,A,3,01,02,03,04,05,06,07,08,09,10,11,12,1.0,1.0,1.0*30
$GPRMC,110438.178,A,5231.590,N,01326.266,E,038.9,083.1,190426,000.0,W*76
$GPGGA,110439.178,5231.591,N,01326.284,E,1,12,1.0,0.0,M,0.0,M,,*6E
$GPGSA,A,3,01,02,03,04,05,06,07,08,09,10,11,12,1.0,1.0,1.0*30
$GPRMC,110439.178,A,5231.591,N,01326.284,E,038.9,083.1,190426,000.0,W*7A
$GPGGA,110440.178,5231.593,N,01326.301,E,1,12,1.0,0.0,M,0.0,M,,*6E
$GPGSA,A,3,01,02,03,04,05,06,07,08,09,10,11,12,1.0,1.0,1.0*30
$GPRMC,110440.178,A,5231.593,N,01326.301,E,038.9,083.1,190426,000.0,W*7A
$GPGGA,110441.178,5231.594,N,01326.319,E,1,12,1.0,0.0,M,0.0,M,,*61
$GPGSA,A,3,01,02,03,04,05,06,07,08,09,10,11,12,1.0,1.0,1.0*30
$GPRMC,110441.178,A,5231.594,N,01326.319,E,038.9,083.1,190426,000.0,W*75
$GPGGA,110442.178,5231.595,N,01326.336,E,1,12,1.0,0.0,M,0.0,M,,*6E
$GPGSA,A,3,01,02,03,04,05,06,07,08,09,10,11,12,1.0,1.0,1.0*30
$GPRMC,110442.178,A,5231.595,N,01326.336,E,038.9,083.1,190426,000.0,W*7A
$GPGGA,110443.178,5231.596,N,01326.354,E,1,12,1.0,0.0,M,0.0,M,,*68
$GPGSA,A,3,01,02,03,04,05,06,07,08,09,10,11,12,1.0,1.0,1.0*30
$GPRMC,110443.178,A,5231.596,N,01326.354,E,038.9,083.1,190426,000.0,W*7C
$GPGGA,110444.178,5231.598,N,01326.372,E,1,12,1.0,0.0,M,0.0,M,,*65
$GPGSA,A,3,01,02,03,04,05,06,07,08,09,10,11,12,1.0,1.0,1.0*30
$GPRMC,110444.178,A,5231.598,N,01326.372,E,038.9,083.1,190426,000.0,W*71
$GPGGA,110445.178,5231.599,N,01326.389,E,1,12,1.0,0.0,M,0.0,M,,*61
$GPGSA,A,3,01,02,03,04,05,06,07,08,09,10,11,12,1.0,1.0,1.0*30
$GPRMC,110445.178,A,5231.599,N,01326.389,E,038.9,083.1,190426,000.0,W*75
$GPGGA,110446.178,5231.600,N,01326.407,E,1,12,1.0,0.0,M,0.0,M,,*60
$GPGSA,A,3,01,02,03,04,05,06,07,08,09,10,11,12,1.0,1.0,1.0*30
$GPRMC,110446.178,A,5231.600,N,01326.407,E,038.9,083.1,190426,000.0,W*74
$GPGGA,110447.178,5231.602,N,01326.424,E,1,12,1.0,0.0,M,0.0,M,,*62
$GPGSA,A,3,01,02,03,04,05,06,07,08,09,10,11,12,1.0,1.0,1.0*30
$GPRMC,110447.178,A,5231.602,N,01326.424,E,038.9,083.1,190426,000.0,W*76
$GPGGA,110448.178,5231.603,N,01326.442,E,1,12,1.0,0.0,M,0.0,M,,*6C
$GPGSA,A,3,01,02,03,04,05,06,07,08,09,10,11,12,1.0,1.0,1.0*30
$GPRMC,110448.178,A,5231.603,N,01326.442,E,038.9,083.1,190426,000.0,W*78
$GPGGA,110449.178,5231.604,N,01326.460,E,1,12,1.0,0.0,M,0.0,M,,*6A
$GPGSA,A,3,01,02,03,04,05,06,07,08,09,10,11,12,1.0,1.0,1.0*30
$GPRMC,110449.178,A,5231.604,N,01326.460,E,038.9,083.1,190426,000.0,W*7E
$GPGGA,110450.178,5231.605,N,01326.477,E,1,12,1.0,0.0,M,0.0,M,,*65
$GPGSA,A,3,01,02,03,04,05,06,07,08,09,10,11,12,1.0,1.0,1.0*30
$GPRMC,110450.178,A,5231.605,N,01326.477,E,038.9,083.1,190426,000.0,W*71
$GPGGA,110451.178,5231.607,N,01326.495,E,1,12,1.0,0.0,M,0.0,M,,*6A
$GPGSA,A,3,01,02,03,04,05,06,07,08,09,10,11,12,1.0,1.0,1.0*30
$GPRMC,110451.178,A,5231.607,N,01326.495,E,038.9,083.1,190426,000.0,W*7E
$GPGGA,110452.178,5231.608,N,01326.512,E,1,12,1.0,0.0,M,0.0,M,,*68
$GPGSA,A,3,01,02,03,04,05,06,07,08,09,10,11,12,1.0,1.0,1.0*30
$GPRMC,110452.178,A,5231.608,N,01326.512,E,038.9,083.1,190426,000.0,W*7C
$GPGGA,110453.178,5231.609,N,01326.530,E,1,12,1.0,0.0,M,0.0,M,,*68
$GPGSA,A,3,01,02,03,04,05,06,07,08,09,10,11,12,1.0,1.0,1.0*30
$GPRMC,110453.178,A,5231.609,N,01326.530,E,038.9,083.1,190426,000.0,W*7C
$GPGGA,110454.178,5231.611,N,01326.548,E,1,12,1.0,0.0,M,0.0,M,,*69
$GPGSA,A,3,01,02,03,04,05,06,07,08,09,10,11,12,1.0,1.0,1.0*30
$GPRMC,110454.178,A,5231.611,N,01326.548,E,038.9,083.1,190426,000.0,W*7D
$GPGGA,110455.178,5231.612,N,01326.565,E,1,12,1.0,0.0,M,0.0,M,,*64
$GPGSA,A,3,01,02,03,04,05,06,07,08,09,10,11,12,1.0,1.0,1.0*30
$GPRMC,110455.178,A,5231.612,N,01326.565,E,038.9,083.1,190426,000.0,W*70
$GPGGA,110456.178,5231.613,N,01326.583,E,1,12,1.0,0.0,M,0.0,M,,*6E
$GPGSA,A,3,01,02,03,04,05,06,07,08,09,10,11,12,1.0,1.0,1.0*30
$GPRMC,110456.178,A,5231.613,N,01326.583,E,038.9,083.1,190426,000.0,W*7A
$GPGGA,110457.178,5231.614,N,01326.601,E,1,12,1.0,0.0,M,0.0,M,,*61
$GPGSA,A,3,01,02,03,04,05,06,07,08,09,10,11,12,1.0,1.0,1.0*30
$GPRMC,110457.178,A,5231.614,N,01326.601,E,038.9,083.1,190426,000.0,W*75
$GPGGA,110458.178,5231.616,N,01326.618,E,1,12,1.0,0.0,M,0.0,M,,*64
$GPGSA,A,3,01,02,03,04,05,06,07,08,09,10,11,12,1.0,1.0,1.0*30
$GPRMC,110458.178,A,5231.616,N,01326.618,E,038.9,083.1,190426,000.0,W*70
$GPGGA,110459.178,5231.617,N,01326.636,E,1,12,1.0,0.0,M,0.0,M,,*68
$GPGSA,A,3,01,02,03,04,05,06,07,08,09,10,11,12,1.0,1.0,1.0*30
$GPRMC,110459.178,A,5231.617,N,01326.636,E,038.9,083.1,190426,000.0,W*7C
$GPGGA,110500.178,5231.618,N,01326.653,E,1,12,1.0,0.0,M,0.0,M,,*69
$GPGSA,A,3,01,02,03,04,05,06,07,08,09,10,11,12,1.0,1.0,1.0*30
$GPRMC,110500.178,A,5231.618,N,01326.653,E,038.9,083.1,190426,000.0,W*7D
$GPGGA,110501.178,5231.620,N,01326.671,E,1,12,1.0,0.0,M,0.0,M,,*63
$GPGSA,A,3,01,02,03,04,05,06,07,08,09,10,11,12,1.0,1.0,1.0*30
$GPRMC,110501.178,A,5231.620,N,01326.671,E,038.9,083.1,190426,000.0,W*77
$GPGGA,110502.178,5231.621,N,01326.689,E,1,12,1.0,0.0,M,0.0,M,,*66
$GPGSA,A,3,01,02,03,04,05,06,07,08,09,10,11,12,1.0,1.0,1.0*30
$GPRMC,110502.178,A,5231.621,N,01326.689,E,038.9,083.1,190426,000.0,W*72
$GPGGA,110503.178,5231.622,N,01326.706,E,1,12,1.0,0.0,M,0.0,M,,*62
$GPGSA,A,3,01,02,03,04,05,06,07,08,09,10,11,12,1.0,1.0,1.0*30
$GPRMC,110503.178,A,5231.622,N,01326.706,E,038.9,083.1,190426,000.0,W*76
$GPGGA,110504.178,5231.623,N,01326.724,E,1,12,1.0,0.0,M,0.0,M,,*64
$GPGSA,A,3,01,02,03,04,05,06,07,08,09,10,11,12,1.0,1.0,1.0*30
$GPRMC,110504.178,A,5231.623,N,01326.724,E,038.9,083.1,190426,000.0,W*70
$GPGGA,110505.178,5231.625,N,01326.741,E,1,12,1.0,0.0,M,0.0,M,,*60
$GPGSA,A,3,01,02,03,04,05,06,07,08,09,10,11,12,1.0,1.0,1.0*30
$GPRMC,110505.178,A,5231.625,N,01326.741,E,038.9,083.1,190426,000.0,W*74
$GPGGA,110506.178,5231.626,N,01326.759,E,1,12,1.0,0.0,M,0.0,M,,*69
$GPGSA,A,3,01,02,03,04,05,06,07,08,09,10,11,12,1.0,1.0,1.0*30
$GPRMC,110506.178,A,5231.626,N,01326.759,E,038.9,083.1,190426,000.0,W*7D
$GPGGA,110507.178,5231.627,N,01326.777,E,1,12,1.0,0.0,M,0.0,M,,*65
$GPGSA,A,3,01,02,03,04,05,06,07,08,09,10,11,12,1.0,1.0,1.0*30
$GPRMC,110507.178,A,5231.627,N,01326.777,E,038.9,083.1,190426,000.0,W*71
$GPGGA,110508.178,5231.629,N,01326.794,E,1,12,1.0,0.0,M,0.0,M,,*69
$GPGSA,A,3,01,02,03,04,05,06,07,08,09,10,11,12,1.0,1.0,1.0*30
$GPRMC,110508.178,A,5231.629,N,01326.794,E,038.9,083.1,190426,000.0,W*7D
$GPGGA,110509.178,5231.630,N,01326.812,E,1,12,1.0,0.0,M,0.0,M,,*61
$GPGSA,A,3,01,02,03,04,05,06,07,08,09,10,11,12,1.0,1.0,1.0*30
$GPRMC,110509.178,A,5231.630,N,01326.812,E,038.9,083.1,190426,000.0,W*75
$GPGGA,110510.178,5231.631,N,01326.829,E,1,12,1.0,0.0,M,0.0,M,,*60
$GPGSA,A,3,01,02,03,04,05,06,07,08,09,10,11,12,1.0,1.0,1.0*30
$GPRMC,110510.178,A,5231.631,N,01326.829,E,038.9,083.1,190426,000.0,W*74
$GPGGA,110511.178,5231.633,N,01326.847,E,1,12,1.0,0.0,M,0.0,M,,*6B
$GPGSA,A,3,01,02,03,04,05,06,07,08,09,10,11,12,1.0,1.0,1.0*30
$GPRMC,110511.178,A,5231.633,N,01326.847,E,038.9,083.1,190426,000.0,W*7F
$GPGGA,110512.178,5231.634,N,01326.865,E,1,12,1.0,0.0,M,0.0,M,,*6F
$GPGSA,A,3,01,02,03,04,05,06,07,08,09,10,11,12,1.0,1.0,1.0*30
$GPRMC,110512.178,A,5231.634,N,01326.865,E,038.9,083.1,190426,000.0,W*7B
$GPGGA,110513.178,5231.635,N,01326.882,E,1,12,1.0,0.0,M,0.0,M,,*66
$GPGSA,A,3,01,02,03,04,05,06,07,08,09,10,11,12,1.0,1.0,1.0*30
$GPRMC,110513.178,A,5231.635,N,01326.882,E,038.9,083.1,190426,000.0,W*72
$GPGGA,110514.178,5231.636,N,01326.900,E,1,12,1.0,0.0,M,0.0,M,,*69
$GPGSA,A,3,01,02,03,04,05,06,07,08,09,10,11,12,1.0,1.0,1.0*30
$GPRMC,110514.178,A,5231.636,N,01326.900,E,038.9,083.1,190426,000.0,W*7D
$GPGGA,110515.178,5231.638,N,01326.918,E,1,12,1.0,0.0,M,0.0,M,,*6F
$GPGSA,A,3,01,02,03,04,05,06,07,08,09,10,11,12,1.0,1.0,1.0*30
$GPRMC,110515.178,A,5231.638,N,01326.918,E,038.9,083.1,190426,000.0,W*7B
$GPGGA,110516.178,5231.639,N,01326.935,E,1,12,1.0,0.0,M,0.0,M,,*62
$GPGSA,A,3,01,02,03,04,05,06,07,08,09,10,11,12,1.0,1.0,1.0*30
$GPRMC,110516.178,A,5231.639,N,01326.935,E,038.9,083.1,190426,000.0,W*76
$GPGGA,110517.178,5231.640,N,01326.953,E,1,12,1.0,0.0,M,0.0,M,,*6D
$GPGSA,A,3,01,02,03,04,05,06,07,08,09,10,11,12,1.0,1.0,1.0*30
$GPRMC,110517.178,A,5231.640,N,01326.953,E,038.9,083.1,190426,000.0,W*79
$GPGGA,110518.178,5231.642,N,01326.970,E,1,12,1.0,0.0,M,0.0,M,,*61
$GPGSA,A,3,01,02,03,04,05,06,07,08,09,10,11,12,1.0,1.0,1.0*30
$GPRMC,110518.178,A,5231.642,N,01326.970,E,038.9,083.1,190426,000.0,W*75
$GPGGA,110519.178,5231.643,N,01326.988,E,1,12,1.0,0.0,M,0.0,M,,*66
$GPGSA,A,3,01,02,03,04,05,06,07,08,09,10,11,12,1.0,1.0,1.0*30
$GPRMC,110519.178,A,5231.643,N,01326.988,E,038.9,083.1,190426,000.0,W*72
$GPGGA,110520.178,5231.644,N,01327.006,E,1,12,1.0,0.0,M,0.0,M,,*65
$GPGSA,A,3,01,02,03,04,05,06,07,08,09,10,11,12,1.0,1.0,1.0*30
$GPRMC,110520.178,A,5231.644,N,01327.006,E,038.9,083.1,190426,000.0,W*71
$GPGGA,110521.178,5231.645,N,01327.023,E,1,12,1.0,0.0,M,0.0,M,,*62
$GPGSA,A,3,01,02,03,04,05,06,07,08,09,10,11,12,1.0,1.0,1.0*30
$GPRMC,110521.178,A,5231.645,N,01327.023,E,038.9,083.1,190426,000.0,W*76
$GPGGA,110522.178,5231.647,N,01327.041,E,1,12,1.0,0.0,M,0.0,M,,*67
$GPGSA,A,3,01,02,03,04,05,06,07,08,09,10,11,12,1.0,1.0,1.0*30
$GPRMC,110522.178,A,5231.647,N,01327.041,E,038.9,083.1,190426,000.0,W*73
$GPGGA,110523.178,5231.648,N,01327.058,E,1,12,1.0,0.0,M,0.0,M,,*61
$GPGSA,A,3,01,02,03,04,05,06,07,08,09,10,11,12,1.0,1.0,1.0*30
$GPRMC,110523.178,A,5231.648,N,01327.058,E,038.9,083.1,190426,000.0,W*75
$GPGGA,110524.178,5231.649,N,01327.076,E,1,12,1.0,0.0,M,0.0,M,,*6B
$GPGSA,A,3,01,02,03,04,05,06,07,08,09,10,11,12,1.0,1.0,1.0*30
$GPRMC,110524.178,A,5231.649,N,01327.076,E,038.9,083.1,190426,000.0,W*7F
$GPGGA,110525.178,5231.651,N,01327.094,E,1,12,1.0,0.0,M,0.0,M,,*6F
$GPGSA,A,3,01,02,03,04,05,06,07,08,09,10,11,12,1.0,1.0,1.0*30
$GPRMC,110525.178,A,5231.651,N,01327.094,E,038.9,083.1,190426,000.0,W*7B
$GPGGA,110526.178,5231.652,N,01327.111,E,1,12,1.0,0.0,M,0.0,M,,*63
$GPGSA,A,3,01,02,03,04,05,06,07,08,09,10,11,12,1.0,1.0,1.0*30
$GPRMC,110526.178,A,5231.652,N,01327.111,E,038.9,083.1,190426,000.0,W*77
$GPGGA,110527.178,5231.653,N,01327.129,E,1,12,1.0,0.0,M,0.0,M,,*68
$GPGSA,A,3,01,02,03,04,05,06,07,08,09,10,11,12,1.0,1.0,1.0*30
$GPRMC,110527.178,A,5231.653,N,01327.129,E,038.9,083.1,190426,000.0,W*7C
$GPGGA,110528.178,5231.654,N,01327.146,E,1,12,1.0,0.0,M,0.0,M,,*69
$GPGSA,A,3,01,02,03,04,05,06,07,08,09,10,11,12,1.0,1.0,1.0*30
$GPRMC,110528.178,A,5231.654,N,01327.146,E,038.9,083.1,190426,000.0,W*7D
$GPGGA,110529.178,5231.656,N,01327.164,E,1,12,1.0,0.0,M,0.0,M,,*6A
$GPGSA,A,3,01,02,03,04,05,06,07,08,09,10,11,12,1.0,1.0,1.0*30
$GPRMC,110529.178,A,5231.656,N,01327.164,E,038.9,083.1,190426,000.0,W*7E
$GPGGA,110530.178,5231.657,N,01327.182,E,1,12,1.0,0.0,M,0.0,M,,*6B
$GPGSA,A,3,01,02,03,04,05,06,07,08,09,10,11,12,1.0,1.0,1.0*30
$GPRMC,110530.178,A,5231.657,N,01327.182,E,038.9,083.1,190426,000.0,W*7F
$GPGGA,110531.178,5231.658,N,01327.199,E,1,12,1.0,0.0,M,0.0,M,,*6F
$GPGSA,A,3,01,02,03,04,05,06,07,08,09,10,11,12,1.0,1.0,1.0*30
$GPRMC,110531.178,A,5231.658,N,01327.199,E,038.9,083.1,190426,000.0,W*7B
$GPGGA,110532.178,5231.660,N,01327.217,E,1,12,1.0,0.0,M,0.0,M,,*62
$GPGSA,A,3,01,02,03,04,05,06,07,08,09,10,11,12,1.0,1.0,1.0*30
$GPRMC,110532.178,A,5231.660,N,01327.217,E,038.9,083.1,190426,000.0,W*76
$GPGGA,110533.178,5231.661,N,01327.235,E,1,12,1.0,0.0,M,0.0,M,,*62
$GPGSA,A,3,01,02,03,04,05,06,07,08,09,10,11,12,1.0,1.0,1.0*30
$GPRMC,110533.178,A,5231.661,N,01327.235,E,038.9,083.1,190426,000.0,W*76
$GPGGA,110534.178,5231.662,N,01327.252,E,1,12,1.0,0.0,M,0.0,M,,*67
$GPGSA,A,3,01,02,03,04,05,06,07,08,09,10,11,12,1.0,1.0,1.0*30
$GPRMC,110534.178,A,5231.662,N,01327.252,E,038.9,083.1,190426,000.0,W*73
$GPGGA,110535.178,5231.664,N,01327.270,E,1,12,1.0,0.0,M,0.0,M,,*60
$GPGSA,A,3,01,02,03,04,05,06,07,08,09,10,11,12,1.0,1.0,1.0*30
$GPRMC,110535.178,A,5231.664,N,01327.270,E,038.9,083.1,190426,000.0,W*74
$GPGGA,110536.178,5231.665,N,01327.287,E,1,12,1.0,0.0,M,0.0,M,,*6A
$GPGSA,A,3,01,02,03,04,05,06,07,08,09,10,11,12,1.0,1.0,1.0*30
$GPRMC,110536.178,A,5231.665,N,01327.287,E,038.9,083.1,190426,000.0,W*7E
$GPGGA,110537.178,5231.666,N,01327.305,E,1,12,1.0,0.0,M,0.0,M,,*63
$GPGSA,A,3,01,02,03,04,05,06,07,08,09,10,11,12,1.0,1.0,1.0*30
$GPRMC,110537.178,A,5231.666,N,01327.305,E,038.9,083.1,190426,000.0,W*77
$GPGGA,110538.178,5231.667,N,01327.323,E,1,12,1.0,0.0,M,0.0,M,,*69
$GPGSA,A,3,01,02,03,04,05,06,07,08,09,10,11,12,1.0,1.0,1.0*30
$GPRMC,110538.178,A,5231.667,N,01327.323,E,038.9,083.1,190426,000.0,W*7D
$GPGGA,110539.178,5231.669,N,01327.340,E,1,12,1.0,0.0,M,0.0,M,,*63
$GPGSA,A,3,01,02,03,04,05,06,07,08,09,10,11,12,1.0,1.0,1.0*30
$GPRMC,110539.178,A,5231.669,N,01327.340,E,038.9,083.1,190426,000.0,W*77
$GPGGA,110540.178,5231.670,N,01327.358,E,1,12,1.0,0.0,M,0.0,M,,*6C
$GPGSA,A,3,01,02,03,04,05,06,07,08,09,10,11,12,1.0,1.0,1.0*30
$GPRMC,110540.178,A,5231.670,N,01327.358,E,038.9,083.1,190426,000.0,W*78
$GPGGA,110541.178,5231.671,N,01327.375,E,1,12,1.0,0.0,M,0.0,M,,*63
$GPGSA,A,3,01,02,03,04,05,06,07,08,09,10,11,12,1.0,1.0,1.0*30
$GPRMC,110541.178,A,5231.671,N,01327.375,E,038.9,083.1,190426,000.0,W*77
$GPGGA,110542.178,5231.673,N,01327.393,E,1,12,1.0,0.0,M,0.0,M,,*6A
$GPGSA,A,3,01,02,03,04,05,06,07,08,09,10,11,12,1.0,1.0,1.0*30
$GPRMC,110542.178,A,5231.673,N,01327.393,E,038.9,083.1,190426,000.0,W*7E
$GPGGA,110543.178,5231.674,N,01327.411,E,1,12,1.0,0.0,M,0.0,M,,*61
$GPGSA,A,3,01,02,03,04,05,06,07,08,09,10,11,12,1.0,1.0,1.0*30
$GPRMC,110543.178,A,5231.674,N,01327.411,E,038.9,083.1,190426,000.0,W*75
$GPGGA,110544.178,5231.675,N,01327.428,E,1,12,1.0,0.0,M,0.0,M,,*6D
$GPGSA,A,3,01,02,03,04,05,06,07,08,09,10,11,12,1.0,1.0,1.0*30
$GPRMC,110544.178,A,5231.675,N,01327.428,E,038.9,083.1,190426,000.0,W*79
$GPGGA,110545.178,5231.676,N,01327.446,E,1,12,1.0,0.0,M,0.0,M,,*67
$GPGSA,A,3,01,02,03,04,05,06,07,08,09,10,11,12,1.0,1.0,1.0*30
$GPRMC,110545.178,A,5231.676,N,01327.446,E,038.9,083.1,190426,000.0,W*73
$GPGGA,110546.178,5231.678,N,01327.463,E,1,12,1.0,0.0,M,0.0,M,,*6D
$GPGSA,A,3,01,02,03,04,05,06,07,08,09,10,11,12,1.0,1.0,1.0*30
$GPRMC,110546.178,A,5231.678,N,01327.463,E,038.9,083.1,190426,000.0,W*79
$GPGGA,110547.178,5231.679,N,01327.481,E,1,12,1.0,0.0,M,0.0,M,,*61
$GPGSA,A,3,01,02,03,04,05,06,07,08,09,10,11,12,1.0,1.0,1.0*30
$GPRMC,110547.178,A,5231.679,N,01327.481,E,038.9,083.1,190426,000.0,W*75
$GPGGA,110548.178,5231.680,N,01327.499,E,1,12,1.0,0.0,M,0.0,M,,*61
$GPGSA,A,3,01,02,03,04,05,06,07,08,09,10,11,12,1.0,1.0,1.0*30
$GPRMC,110548.178,A,5231.680,N,01327.499,E,038.9,083.1,190426,000.0,W*75
$GPGGA,110549.178,5231.682,N,01327.516,E,1,12,1.0,0.0,M,0.0,M,,*64
$GPGSA,A,3,01,02,03,04,05,06,07,08,09,10,11,12,1.0,1.0,1.0*30
$GPRMC,110549.178,A,5231.682,N,01327.516,E,038.9,083.1,190426,000.0,W*70
$GPGGA,110550.178,5231.683,N,01327.534,E,1,12,1.0,0.0,M,0.0,M,,*6D
$GPGSA,A,3,01,02,03,04,05,06,07,08,09,10,11,12,1.0,1.0,1.0*30
$GPRMC,110550.178,A,5231.683,N,01327.534,E,038.9,083.1,190426,000.0,W*79
$GPGGA,110551.178,5231.684,N,01327.552,E,1,12,1.0,0.0,M,0.0,M,,*6B
$GPGSA,A,3,01,02,03,04,05,06,07,08,09,10,11,12,1.0,1.0,1.0*30
$GPRMC,110551.178,A,5231.684,N,01327.552,E,038.9,083.1,190426,000.0,W*7F
$GPGGA,110552.178,5231.685,N,01327.569,E,1,12,1.0,0.0,M,0.0,M,,*61
$GPGSA,A,3,01,02,03,04,05,06,07,08,09,10,11,12,1.0,1.0,1.0*30
$GPRMC,110552.178,A,5231.685,N,01327.569,E,038.9,083.1,190426,000.0,W*75
$GPGGA,110553.178,5231.687,N,01327.587,E,1,12,1.0,0.0,M,0.0,M,,*62
$GPGSA,A,3,01,02,03,04,05,06,07,08,09,10,11,12,1.0,1.0,1.0*30
$GPRMC,110553.178,A,5231.687,N,01327.587,E,038.9,083.1,190426,000.0,W*76
$GPGGA,110554.178,5231.688,N,01327.604,E,1,12,1.0,0.0,M,0.0,M,,*62
$GPGSA,A,3,01,02,03,04,05,06,07,08,09,10,11,12,1.0,1.0,1.0*30
$GPRMC,110554.178,A,5231.688,N,01327.604,E,038.9,083.1,190426,000.0,W*76
$GPGGA,110555.178,5231.689,N,01327.622,E,1,12,1.0,0.0,M,0.0,M,,*66
$GPGSA,A,3,01,02,03,04,05,06,07,08,09,10,11,12,1.0,1.0,1.0*30
$GPRMC,110555.178,A,5231.689,N,01327.622,E,038.9,083.1,190426,000.0,W*72
$GPGGA,110556.178,5231.691,N,01327.640,E,1,12,1.0,0.0,M,0.0,M,,*68
$GPGSA,A,3,01,02,03,04,05,06,07,08,09,10,11,12,1.0,1.0,1.0*30
$GPRMC,110556.178,A,5231.691,N,01327.640,E,038.9,083.1,190426,000.0,W*7C
$GPGGA,110557.178,5231.692,N,01327.657,E,1,12,1.0,0.0,M,0.0,M,,*6C
$GPGSA,A,3,01,02,03,04,05,06,07,08,09,10,11,12,1.0,1.0,1.0*30
$GPRMC,110557.178,A,5231.692,N,01327.657,E,038.9,083.1,190426,000.0,W*78
$GPGGA,110558.178,5231.693,N,01327.675,E,1,12,1.0,0.0,M,0.0,M,,*62
$GPGSA,A,3,01,02,03,04,05,06,07,08,09,10,11,12,1.0,1.0,1.0*30
$GPRMC,110558.178,A,5231.693,N,01327.675,E,038.9,083.1,190426,000.0,W*76
$GPGGA,110559.178,5231.694,N,01327.692,E,1,12,1.0,0.0,M,0.0,M,,*6D
$GPGSA,A,3,01,02,03,04,05,06,07,08,09,10,11,12,1.0,1.0,1.0*30
$GPRMC,110559.178,A,5231.694,N,01327.692,E,038.9,083.1,190426,000.0,W*79
$GPGGA,110600.178,5231.696,N,01327.710,E,1,12,1.0,0.0,M,0.0,M,,*6B
$GPGSA,A,3,01,02,03,04,05,06,07,08,09,10,11,12,1.0,1.0,1.0*30
$GPRMC,110600.178,A,5231.696,N,01327.710,E,038.9,083.1,190426,000.0,W*7F
$GPGGA,110601.178,5231.697,N,01327.728,E,1,12,1.0,0.0,M,0.0,M,,*60
$GPGSA,A,3,01,02,03,04,05,06,07,08,09,10,11,12,1.0,1.0,1.0*30
$GPRMC,110601.178,A,5231.697,N,01327.728,E,038.9,083.1,190426,000.0,W*74
$GPGGA,110602.178,5231.698,N,01327.745,E,1,12,1.0,0.0,M,0.0,M,,*67
$GPGSA,A,3,01,02,03,04,05,06,07,08,09,10,11,12,1.0,1.0,1.0*30
$GPRMC,110602.178,A,5231.698,N,01327.745,E,038.9,083.1,190426,000.0,W*73
$GPGGA,110603.178,5231.700,N,01327.763,E,1,12,1.0,0.0,M,0.0,M,,*62
$GPGSA,A,3,01,02,03,04,05,06,07,08,09,10,11,12,1.0,1.0,1.0*30
$GPRMC,110603.178,A,5231.700,N,01327.763,E,038.9,083.1,190426,000.0,W*76
$GPGGA,110604.178,5231.701,N,01327.780,E,1,12,1.0,0.0,M,0.0,M,,*69
$GPGSA,A,3,01,02,03,04,05,06,07,08,09,10,11,12,1.0,1.0,1.0*30
$GPRMC,110604.178,A,5231.701,N,01327.780,E,038.9,083.1,190426,000.0,W*7D
$GPGGA,110605.178,5231.702,N,01327.798,E,1,12,1.0,0.0,M,0.0,M,,*62
$GPGSA,A,3,01,02,03,04,05,06,07,08,09,10,11,12,1.0,1.0,1.0*30
$GPRMC,110605.178,A,5231.702,N,01327.798,E,038.9,083.1,190426,000.0,W*76
$GPGGA,110606.178,5231.704,N,01327.816,E,1,12,1.0,0.0,M,0.0,M,,*6E
$GPGSA,A,3,01,02,03,04,05,06,07,08,09,10,11,12,1.0,1.0,1.0*30
$GPRMC,110606.178,A,5231.704,N,01327.816,E,038.9,083.1,190426,000.0,W*7A
$GPGGA,110607.178,5231.705,N,01327.833,E,1,12,1.0,0.0,M,0.0,M,,*69
$GPGSA,A,3,01,02,03,04,05,06,07,08,09,10,11,12,1.0,1.0,1.0*30
$GPRMC,110607.178,A,5231.705,N,01327.833,E,038.9,083.1,190426,000.0,W*7D
$GPGGA,110608.178,5231.706,N,01327.851,E,1,12,1.0,0.0,M,0.0,M,,*61
$GPGSA,A,3,01,02,03,04,05,06,07,08,09,10,11,12,1.0,1.0,1.0*30
$GPRMC,110608.178,A,5231.706,N,01327.851,E,038.9,083.1,190426,000.0,W*75
$GPGGA,110609.178,5231.707,N,01327.869,E,1,12,1.0,0.0,M,0.0,M,,*6A
$GPGSA,A,3,01,02,03,04,05,06,07,08,09,10,11,12,1.0,1.0,1.0*30
$GPRMC,110609.178,A,5231.707,N,01327.869,E,038.9,083.1,190426,000.0,W*7E
$GPGGA,110610.178,5231.709,N,01327.886,E,1,12,1.0,0.0,M,0.0,M,,*6D
$GPGSA,A,3,01,02,03,04,05,06,07,08,09,10,11,12,1.0,1.0,1.0*30
$GPRMC,110610.178,A,5231.709,N,01327.886,E,038.9,083.1,190426,000.0,W*79
$GPGGA,110611.178,5231.710,N,01327.904,E,1,12,1.0,0.0,M,0.0,M,,*6F
$GPGSA,A,3,01,02,03,04,05,06,07,08,09,10,11,12,1.0,1.0,1.0*30
$GPRMC,110611.178,A,5231.710,N,01327.904,E,038.9,083.1,190426,000.0,W*7B
$GPGGA,110612.178,5231.711,N,01327.921,E,1,12,1.0,0.0,M,0.0,M,,*6A
$GPGSA,A,3,01,02,03,04,05,06,07,08,09,10,11,12,1.0,1.0,1.0*30
$GPRMC,110612.178,A,5231.711,N,01327.921,E,038.9,083.1,190426,000.0,W*7E
$GPGGA,110613.178,5231.713,N,01327.939,E,1,12,1.0,0.0,M,0.0,M,,*60
$GPGSA,A,3,01,02,03,04,05,06,07,08,09,10,11,12,1.0,1.0,1.0*30
$GPRMC,110613.178,A,5231.713,N,01327.939,E,038.9,083.1,190426,000.0,W*74
$GPGGA,110614.178,5231.714,N,01327.957,E,1,12,1.0,0.0,M,0.0,M,,*68
$GPGSA,A,3,01,02,03,04,05,06,07,08,09,10,11,12,1.0,1.0,1.0*30
$GPRMC,110614.178,A,5231.714,N,01327.957,E,038.9,083.1,190426,000.0,W*7C
